name,country,latitude,longitude,timezone,population
les Escaldes,AD,42.50729,1.53414,Europe/Andorra,15853
Andorra la Vella,AD,42.50779,1.52109,Europe/Andorra,20430
Warīsān,ОАЭ,25.16744,55.40708,Asia/Dubai,108759
Umm Suqaym,ОАЭ,25.15491,55.21015,Asia/Dubai,16459
Umm Al Quwain City,ОАЭ,25.56473,55.55517,Asia/Dubai,59098
Ţarīf Kalbā,ОАЭ,25.0695,56.33115,Asia/Dubai,51000
Ar Rāshidīyah,ОАЭ,25.22499,55.38947,Asia/Dubai,38425
Ras Al Khaimah City,ОАЭ,25.78953,55.9432,Asia/Dubai,351943
Zayed City,ОАЭ,23.65416,53.70522,Asia/Dubai,63482
Khawr Fakkān,ОАЭ,25.33132,56.34199,Asia/Dubai,40677
Kalbā,ОАЭ,25.0513,56.35422,Asia/Dubai,37545
Jumayrā,ОАЭ,25.20795,55.24969,Asia/Dubai,39080
Dubai,ОАЭ,25.07725,55.30927,Asia/Dubai,3790000
Dibba Al-Fujairah,ОАЭ,25.59246,56.26176,Asia/Dubai,30000
Dibba Al-Hisn,ОАЭ,25.61955,56.27291,Asia/Dubai,26395
Dayrah,ОАЭ,25.27143,55.30207,Asia/Dubai,400000
Sharjah,ОАЭ,25.3342,55.41221,Asia/Dubai,1800000
Ar Ruways,ОАЭ,24.11028,52.73056,Asia/Dubai,25000
Ḩattā,ОАЭ,24.80073,56.12726,Asia/Dubai,15324
Al Fujairah City,ОАЭ,25.11641,56.34141,Asia/Dubai,118933
Al Ain City,ОАЭ,24.19167,55.76056,Asia/Dubai,846747
Ajman City,ОАЭ,25.40177,55.47878,Asia/Dubai,490035
Adh Dhayd,ОАЭ,25.28812,55.88157,Asia/Dubai,20165
Abu Dhabi,ОАЭ,24.45118,54.39696,Asia/Dubai,1807000
Abū Hayl,ОАЭ,25.28413,55.33153,Asia/Dubai,18043
As Saţwah,ОАЭ,25.22192,55.27459,Asia/Dubai,40997
Al Ḩamīdīyah,ОАЭ,25.40001,55.52925,Asia/Dubai,27000
Al Waheda,ОАЭ,25.29173,55.33822,Asia/Dubai,21608
Al Karama,ОАЭ,25.24004,55.30106,Asia/Dubai,75560
The Palm Jumeirah,ОАЭ,25.11607,55.13506,Asia/Dubai,25500
Bur Dubai,ОАЭ,25.26038,55.29891,Asia/Dubai,18698
Khalifah A City,ОАЭ,24.42588,54.605,Asia/Dubai,85374
Mirdif,ОАЭ,25.22443,55.41412,Asia/Dubai,60288
Hawr al ‘Anz,ОАЭ,25.27744,55.33675,Asia/Dubai,84661
Mankhūl,ОАЭ,25.24612,55.29222,Asia/Dubai,41244
Nāyf,ОАЭ,25.27139,55.30323,Asia/Dubai,53075
Al Murar al Qadīm,ОАЭ,25.27576,55.30738,Asia/Dubai,19831
Al Warqaa,ОАЭ,25.19272,55.42013,Asia/Dubai,59111
International City,ОАЭ,25.16383,55.40987,Asia/Dubai,120000
Dubai Marina,ОАЭ,25.08525,55.14646,Asia/Dubai,120000
Dubai Internet City,ОАЭ,25.09538,55.16171,Asia/Dubai,24000
Al Safa,ОАЭ,25.17047,55.23336,Asia/Dubai,15672
Ar Rumaylah,ОАЭ,25.40338,55.4334,Asia/Dubai,86000
Al Jurf,ОАЭ,25.41814,55.50791,Asia/Dubai,18000
Al Majaz,ОАЭ,25.32354,55.38774,Asia/Dubai,116503
Dubai Festival City,ОАЭ,25.22177,55.35733,Asia/Dubai,77000
Dubai International Financial Centre,ОАЭ,25.2106,55.27787,Asia/Dubai,36000
Dubai Investments Park,ОАЭ,25.00827,55.15682,Asia/Dubai,160000
Jebel Ali,ОАЭ,25.00255,55.10811,Asia/Dubai,210000
Bani Yas City,ОАЭ,24.30978,54.62944,Asia/Dubai,80498
Musaffah,ОАЭ,24.35893,54.48267,Asia/Dubai,243341
Al Shamkhah City,ОАЭ,24.39268,54.70779,Asia/Dubai,61710
Reef Al Fujairah City,ОАЭ,25.14479,56.24764,Asia/Dubai,82310
Al Bada'a,ОАЭ,25.22462,55.26888,Asia/Dubai,18816
Al Muteena,ОАЭ,25.27375,55.32265,Asia/Dubai,48739
Al Mizhar First,ОАЭ,25.24805,55.44128,Asia/Dubai,17498
Dubai Silicon Oasis,ОАЭ,25.11985,55.38718,Asia/Dubai,90000
Al Furjan,ОАЭ,25.02651,55.14565,Asia/Dubai,26000
Business Bay,ОАЭ,25.18544,55.26969,Asia/Dubai,191000
Al Qusais 1,ОАЭ,25.27925,55.36995,Asia/Dubai,48378
Halwan,ОАЭ,25.34586,55.42165,Asia/Dubai,19389
Al Sajaah,ОАЭ,25.31532,55.63211,Asia/Dubai,53079
Lahbab,ОАЭ,25.03763,55.59135,Asia/Dubai,53079
Mohammed Bin Zayed City,ОАЭ,24.34794,54.55368,Asia/Dubai,85000
Zaranj,Афганистан,30.95962,61.86037,Asia/Kabul,49851
Bāzār-e Yakāwlang,Афганистан,34.73525,66.97379,Asia/Kabul,65000
Taloqan,Афганистан,36.73605,69.53451,Asia/Kabul,64256
Shīnḏanḏ,Афганистан,33.30294,62.1474,Asia/Kabul,29264
Shibirghān,Афганистан,36.66757,65.7529,Asia/Kabul,55641
Shahrak,Афганистан,34.10737,64.3052,Asia/Kabul,15967
Sar-e Pul,Афганистан,36.21544,65.93249,Asia/Kabul,52121
Sang-e Chārak,Афганистан,35.84972,66.43694,Asia/Kabul,15377
Aībak,Афганистан,36.26468,68.01551,Asia/Kabul,47823
Rustāq,Афганистан,37.12604,69.83045,Asia/Kabul,25636
Qarqīn,Афганистан,37.41853,66.04358,Asia/Kabul,15018
Qarāwul,Афганистан,37.21959,68.7802,Asia/Kabul,24544
Pul-e Khumrī,Афганистан,35.94458,68.71512,Asia/Kabul,56369
Paghmān,Афганистан,34.58787,68.95091,Asia/Kabul,49157
Nīlī,Афганистан,33.72178,66.13023,Asia/Kabul,30058
Nahrīn,Афганистан,36.0649,69.13343,Asia/Kabul,22363
Maymana,Афганистан,35.92139,64.78361,Asia/Kabul,75900
Mehtar Lām,Афганистан,34.67139,70.20944,Asia/Kabul,17345
Mazār-e Sharīf,Афганистан,36.70904,67.11087,Asia/Kabul,523300
Lashkar Gāh,Афганистан,31.59382,64.37161,Asia/Kabul,43934
Kushk,Афганистан,33.29565,61.95221,Asia/Kabul,16952
Kunduz,Афганистан,36.72895,68.857,Asia/Kabul,161902
Khōst,Афганистан,33.33951,69.92041,Asia/Kabul,96123
Khulm,Афганистан,36.69736,67.69826,Asia/Kabul,64933
Khāsh,Афганистан,31.52919,62.79055,Asia/Kabul,15133
Khān Neshīn,Афганистан,30.5488,63.7888,Asia/Kabul,25600
Khanabad,Афганистан,36.68304,69.11279,Asia/Kabul,71531
Karukh,Афганистан,34.48108,62.5863,Asia/Kabul,17484
Kandahār,Афганистан,31.61332,65.71013,Asia/Kabul,523300
Kabul,Афганистан,34.52813,69.17233,Asia/Kabul,4434550
Jalālābād,Афганистан,34.42647,70.45153,Asia/Kabul,271900
Jabal os Saraj,Афганистан,35.11833,69.23778,Asia/Kabul,15032
Herāt,Афганистан,34.34817,62.19967,Asia/Kabul,574300
Ghormach,Афганистан,35.73062,63.78264,Asia/Kabul,30000
Ghazni,Афганистан,33.55391,68.42096,Asia/Kabul,141000
Gereshk,Афганистан,31.82089,64.57005,Asia/Kabul,43588
Gardez,Афганистан,33.59744,69.22592,Asia/Kabul,103601
Fayzabad,Афганистан,37.11664,70.58002,Asia/Kabul,44421
Farah,Афганистан,32.37451,62.11638,Asia/Kabul,43561
Eslam Qaleh,Афганистан,34.66667,61.06667,Asia/Kabul,18086
Charikar,Афганистан,35.01361,69.17139,Asia/Kabul,53676
Baraki Barak,Афганистан,33.96744,68.9492,Asia/Kabul,22305
Bāmyān,Афганистан,34.82156,67.82734,Asia/Kabul,61863
Balkh,Афганистан,36.75635,66.8972,Asia/Kabul,114883
Baghlān,Афганистан,36.13068,68.70829,Asia/Kabul,108449
Ārt Khwājah,Афганистан,37.08571,69.47958,Asia/Kabul,18623
Āsmār,Афганистан,35.03333,71.35809,Asia/Kabul,15708
Asadābād,Афганистан,34.87311,71.14697,Asia/Kabul,48400
Andkhōy,Афганистан,36.95293,65.12376,Asia/Kabul,29208
Bāzārak,Афганистан,35.31292,69.51519,Asia/Kabul,65000
Markaz-e Woluswalī-ye Āchīn,Афганистан,34.12583,70.70778,Asia/Kabul,15098
Saint John’s,AG,17.12096,-61.84329,America/Antigua,24226
Sarandë,Албания,39.87534,20.00477,Europe/Tirane,22613
Pogradec,Албания,40.9025,20.6525,Europe/Tirane,46070
Librazhd,Албания,41.17944,20.315,Europe/Tirane,23312
Kukës,Албания,42.07694,20.42194,Europe/Tirane,36125
Korçë,Албания,40.61861,20.78083,Europe/Tirane,58259
Gjirokastër,Албания,40.07583,20.13889,Europe/Tirane,23437
Elbasan,Албания,41.11138,20.08224,Europe/Tirane,100903
Bulqizë,Албания,41.49167,20.22194,Europe/Tirane,26826
Vlorë,Албания,40.4696,19.48379,Europe/Tirane,115261
Tirana,Албания,41.32744,19.81866,Europe/Tirane,418495
Shkodër,Албания,42.06828,19.51258,Europe/Tirane,95553
Peqin,Албания,41.04611,19.75111,Europe/Tirane,16580
Patos Fshat,Албания,40.64278,19.65083,Europe/Tirane,22679
Patos,Албания,40.68333,19.61944,Europe/Tirane,16000
Lushnjë,Албания,40.94194,19.705,Europe/Tirane,63135
Lezhë,Албания,41.78361,19.64361,Europe/Tirane,18695
Kuçovë,Албания,40.80028,19.91667,Europe/Tirane,31077
Krujë,Албания,41.50917,19.79278,Europe/Tirane,51191
Kavajë,Албания,41.18556,19.55694,Europe/Tirane,30012
Fier-Çifçi,Албания,40.71667,19.56667,Europe/Tirane,60995
Fier,Албания,40.7251,19.55823,Europe/Tirane,56297
Durrës,Албания,41.32355,19.45469,Europe/Tirane,195920
Berat,Албания,40.70583,19.95222,Europe/Tirane,62232
Kapan,Армения,39.20762,46.40678,Asia/Yerevan,32900
Goris,Армения,39.51111,46.34168,Asia/Yerevan,17483
Artashat,Армения,39.95484,44.54874,Asia/Yerevan,22800
Ararat,Армения,39.85494,44.6947,Asia/Yerevan,16986
Yerevan,Армения,40.17765,44.5126,Asia/Yerevan,1141100
Vagharshapat,Армения,40.16557,44.29462,Asia/Yerevan,45842
Sevan,Армения,40.548,44.95314,Asia/Yerevan,18951
Masis,Армения,40.06595,44.43669,Asia/Yerevan,20774
Vanadzor,Армения,40.8074,44.49704,Asia/Yerevan,78100
Gavar,Армения,40.35398,45.12386,Asia/Yerevan,18900
Ijevan,Армения,40.88037,45.14776,Asia/Yerevan,19500
Hrazdan,Армения,40.5169,44.75591,Asia/Yerevan,49500
Armavir,Армения,40.15553,44.0388,Asia/Yerevan,29700
Gyumri,Армения,40.79305,43.84635,Asia/Yerevan,112301
Dilijan,Армения,40.74037,44.86344,Asia/Yerevan,16400
Davtashen,Армения,40.21642,44.48088,Asia/Yerevan,51800
Charentsavan,Армения,40.40289,44.64447,Asia/Yerevan,22763
Avan,Армения,40.21436,44.57846,Asia/Yerevan,58700
Ashtarak,Армения,40.2976,44.36152,Asia/Yerevan,17600
Artik,Армения,40.61918,43.97207,Asia/Yerevan,17950
Abovyan,Армения,40.2717,44.63342,Asia/Yerevan,47546
Erebuni,Армения,40.13309,44.53009,Asia/Yerevan,129500
Nor Nork,Армения,40.19661,44.5669,Asia/Yerevan,136900
Ajapnyak,Армения,40.19917,44.47056,Asia/Yerevan,122300
Kanaker-Zeytun,Армения,40.22,44.53833,Asia/Yerevan,75000
Malatia-Sebastia,Армения,40.17396,44.4457,Asia/Yerevan,150000
Kentron,Армения,40.17806,44.51303,Asia/Yerevan,132800
Shengavit,Армения,40.1557,44.4779,Asia/Yerevan,140400
Arabkir,Армения,40.20624,44.50365,Asia/Yerevan,118870
Saurimo,AO,-9.66078,20.39155,Africa/Luanda,393000
Lucapa,AO,-8.41915,20.74466,Africa/Luanda,110000
Dundo,AO,-7.36643,20.81557,Africa/Luanda,177604
Chitato,AO,-7.3,20.73333,Africa/Luanda,246880
Cassanguidi,AO,-7.48367,21.30339,Africa/Luanda,20000
Lumbala,AO,-14.10165,21.43531,Africa/Luanda,19000
Luau,AO,-10.70727,22.22466,Africa/Luanda,55432
Cazombo,AO,-11.89914,22.90216,Africa/Luanda,34000
Nzagi,AO,-8.38549,15.30126,Africa/Luanda,60000
Uíge,AO,-7.60874,15.06131,Africa/Luanda,322531
Tombôco,AO,-6.80517,13.33017,Africa/Luanda,20358
Soyo,AO,-6.1349,12.36894,Africa/Luanda,200920
Songo,AO,-7.35207,14.84629,Africa/Luanda,31382
Sanza Pombo,AO,-7.31473,16.0024,Africa/Luanda,23000
N'zeto,AO,-7.228,12.86956,Africa/Luanda,28840
Negage,AO,-7.75938,15.2722,Africa/Luanda,92950
N'dalatando,AO,-9.29782,14.91162,Africa/Luanda,161584
Mussende,AO,-10.5143,16.0199,Africa/Luanda,33558
Mbanza Kongo,AO,-6.26667,14.23833,Africa/Luanda,148000
Maquela do Zombo,AO,-6.05716,15.10971,Africa/Luanda,42000
Malanje,AO,-9.54015,16.34096,Africa/Luanda,455000
Lucala,AO,-9.27268,15.25206,Africa/Luanda,19422
Lubalo,AO,-9.15445,19.28136,Africa/Luanda,26103
Luanda,AO,-8.83682,13.23432,Africa/Luanda,2776168
Cunda diá Baze,AO,-8.90769,17.05339,Africa/Luanda,15965
Golungo Alto,AO,-9.13333,14.76667,Africa/Luanda,19992
Dondo,AO,-9.68456,14.42788,Africa/Luanda,64643
Dondo,AO,-9.05,15.31667,Africa/Luanda,64643
Cuímba,AO,-6.12085,14.62086,Africa/Luanda,41878
Cuilo,AO,-8.23619,19.52566,Africa/Luanda,26577
Cuango-Luzamba,AO,-9.14583,18.04453,Africa/Luanda,55000
Cazombo,AO,-8.73204,15.37124,Africa/Luanda,34000
Caxito,AO,-8.57848,13.66425,Africa/Luanda,55000
Cangandala,AO,-9.78333,16.43333,Africa/Luanda,16232
Camabatela,AO,-8.18812,15.37495,Africa/Luanda,21767
Cacuso,AO,-9.42102,15.74668,Africa/Luanda,39302
Cabinda,AO,-5.56198,12.19476,Africa/Luanda,550000
Buco Zau,AO,-4.76667,12.55,Africa/Luanda,40953
Belize,AO,-4.65,12.76667,Africa/Luanda,24430
Barra do Dande,AO,-8.47175,13.37011,Africa/Luanda,75000
Bailundo,AO,-9.57499,15.99442,Africa/Luanda,70481
Gama,AO,-8.5675,13.47639,Africa/Luanda,66202
Xangongo,AO,-16.7444,14.97494,Africa/Luanda,35000
Alto Hama,AO,-12.23333,15.55,Africa/Luanda,17000
Virei,AO,-15.727,12.94961,Africa/Luanda,42607
Ucuma,AO,-12.96121,15.05958,Africa/Luanda,21809
Ucu Seles,AO,-11.41237,14.30663,Africa/Luanda,47421
Tômbua,AO,-15.80394,11.84485,Africa/Luanda,46573
Sumbe,AO,-11.20605,13.84371,Africa/Luanda,205832
Quipungo,AO,-14.81909,14.53504,Africa/Luanda,23014
Quibala,AO,-10.73366,14.97995,Africa/Luanda,27128
Porto Amboim,AO,-10.73251,13.76844,Africa/Luanda,91605
Ondjiva,AO,-17.06667,15.73333,Africa/Luanda,121537
Nharêa,AO,-11.47512,16.96496,Africa/Luanda,18000
Mossamedes,AO,-15.19611,12.15222,Africa/Luanda,255000
Mungo,AO,-11.83268,16.23613,Africa/Luanda,21662
Menongue,AO,-14.6585,17.69099,Africa/Luanda,251178
Matala,AO,-14.73272,15.03479,Africa/Luanda,78000
Luquembo,AO,-10.73912,17.71766,Africa/Luanda,69420
Luena,AO,-11.78333,19.91667,Africa/Luanda,273675
Lubango,AO,-14.91717,13.4925,Africa/Luanda,600751
Longonjo,AO,-12.90795,15.24845,Africa/Luanda,23000
Londuimbali,AO,-12.23712,15.31697,Africa/Luanda,17000
Lobito,AO,-12.3644,13.53601,Africa/Luanda,357950
Cuíto,AO,-12.38333,16.93333,Africa/Luanda,355423
Catchiungo,AO,-12.56598,16.22589,Africa/Luanda,26974
Huambo,AO,-12.77611,15.73917,Africa/Luanda,595304
Ganda,AO,-13.01592,14.63502,Africa/Luanda,65000
Gabela,AO,-10.85147,14.37993,Africa/Luanda,116903
Dombe Grande,AO,-12.95167,13.1025,Africa/Luanda,25000
Cuemba,AO,-12.15,18.08333,Africa/Luanda,19995
Cubal,AO,-13.03865,14.2455,Africa/Luanda,90367
Conda,AO,-11.10862,14.33621,Africa/Luanda,21260
Chitembo,AO,-13.55,16.63333,Africa/Luanda,25000
Chinguar,AO,-12.55708,16.33805,Africa/Luanda,26811
Cela,AO,-11.42173,15.12345,Africa/Luanda,90000
Catumbela,AO,-12.43002,13.54677,Africa/Luanda,95034
Catabola,AO,-12.15,17.28333,Africa/Luanda,28831
Capunda,AO,-11.13333,14.46667,Africa/Luanda,21260
Camucuio,AO,-14.11667,13.25,Africa/Luanda,66112
Cambundi Catembo,AO,-10.07531,17.55058,Africa/Luanda,17212
Camacupa,AO,-12.01667,17.48333,Africa/Luanda,59000
Caluquembe,AO,-13.86667,14.43333,Africa/Luanda,31000
Calulo,AO,-10.00055,14.89519,Africa/Luanda,44000
Caála,AO,-12.8525,15.56056,Africa/Luanda,130000
Bocoio,AO,-12.47017,14.13688,Africa/Luanda,35000
Benguela,AO,-12.57674,13.40268,Africa/Luanda,555124
Balombo,AO,-12.35426,14.77232,Africa/Luanda,36361
Baía Farta,AO,-12.60417,13.19667,Africa/Luanda,45000
Andulo,AO,-11.48676,16.69663,Africa/Luanda,50000
Cambundi,AO,-7.46856,17.03769,Africa/Luanda,17212
Cafunfo,AO,-8.7672,17.99572,Africa/Luanda,90000
Santa Clara,AO,-10.19156,15.43408,Africa/Luanda,29000
Quissecula,AO,-11.39223,15.09201,Africa/Luanda,90000
Cambundi,AO,-10.89481,17.76402,Africa/Luanda,17212
Zárate,Аргентина,-34.09584,-59.02423,America/Argentina/Buenos_Aires,99061
Colonia Wanda,Аргентина,-25.97337,-54.56304,America/Argentina/Cordoba,15529
Villa Ortúzar,Аргентина,-34.57973,-58.46829,America/Argentina/Buenos_Aires,22500
Villa Ocampo,Аргентина,-28.48726,-59.35421,America/Argentina/Cordoba,19101
Villa Lugano,Аргентина,-34.67907,-58.47263,America/Argentina/Buenos_Aires,114000
Villaguay,Аргентина,-31.86767,-59.02701,America/Argentina/Cordoba,32027
Villa Gesell,Аргентина,-37.26394,-56.97304,America/Argentina/Buenos_Aires,23257
Villa de Mayo,Аргентина,-34.5108,-58.68059,America/Argentina/Buenos_Aires,43405
Tortuguitas,Аргентина,-34.47513,-58.75367,America/Argentina/Buenos_Aires,41390
Tigre,Аргентина,-34.42603,-58.57962,America/Argentina/Buenos_Aires,31106
Tandil,Аргентина,-37.3287,-59.1369,America/Argentina/Buenos_Aires,115877
San Vicente,Аргентина,-26.61667,-54.13333,America/Argentina/Cordoba,38247
Santo Tomé,Аргентина,-28.55104,-56.04125,America/Argentina/Cordoba,22634
Santos Lugares,Аргентина,-34.60306,-58.54074,America/Argentina/Buenos_Aires,37267
Santa Elena,Аргентина,-30.94432,-59.78832,America/Argentina/Cordoba,18410
San Pedro,Аргентина,-33.67918,-59.66633,America/Argentina/Buenos_Aires,47452
San Pedro,Аргентина,-26.6218,-54.10902,America/Argentina/Cordoba,23736
San Luis del Palmar,Аргентина,-27.50766,-58.55625,America/Argentina/Cordoba,15347
San Lorenzo,Аргентина,-28.13442,-58.76685,America/Argentina/Cordoba,47626
San Javier,Аргентина,-30.58072,-59.92962,America/Argentina/Cordoba,15606
San Isidro,Аргентина,-34.46971,-58.52111,America/Argentina/Buenos_Aires,45190
San Antonio de Padua,Аргентина,-34.66267,-58.69819,America/Argentina/Buenos_Aires,37745
Saladillo,Аргентина,-35.63884,-59.77938,America/Argentina/Buenos_Aires,35669
Saladas,Аргентина,-28.25504,-58.62386,America/Argentina/Cordoba,18349
Retiro,Аргентина,-34.58333,-58.38333,America/Argentina/Buenos_Aires,38635
Resistencia,Аргентина,-27.46363,-58.98665,America/Argentina/Cordoba,290793
Reconquista,Аргентина,-29.15,-59.65,America/Argentina/Cordoba,90184
Quilmes,Аргентина,-34.72065,-58.25454,America/Argentina/Buenos_Aires,262379
Puerto Rico,Аргентина,-26.8089,-55.02147,America/Argentina/Cordoba,17491
Puerto Iguazú,Аргентина,-25.59912,-54.57355,America/Argentina/Cordoba,32038
Puerto Esperanza,Аргентина,-26.02267,-54.61356,America/Argentina/Cordoba,15579
Puerto Eldorado,Аргентина,-26.40843,-54.69463,America/Argentina/Cordoba,54189
Posadas,Аргентина,-27.39184,-55.92379,America/Argentina/Cordoba,305874
Pontevedra,Аргентина,-34.74947,-58.70158,America/Argentina/Buenos_Aires,33515
Pirané,Аргентина,-25.73271,-59.10989,America/Argentina/Cordoba,19124
Pilar,Аргентина,-34.45867,-58.91398,America/Argentina/Buenos_Aires,81120
Paso de los Libres,Аргентина,-29.71251,-57.08771,America/Argentina/Cordoba,43805
Oberá,Аргентина,-27.48683,-55.11994,America/Argentina/Cordoba,56528
Nogoyá,Аргентина,-32.39375,-59.78955,America/Argentina/Cordoba,43195
Necochea,Аргентина,-38.5545,-58.73961,America/Argentina/Buenos_Aires,73557
Muñiz,Аргентина,-34.55622,-58.70739,America/Argentina/Buenos_Aires,26844
Morón,Аргентина,-34.65118,-58.62205,America/Argentina/Buenos_Aires,99066
Monte Caseros,Аргентина,-30.2518,-57.63537,America/Argentina/Cordoba,24671
Montecarlo,Аргентина,-26.56849,-54.7579,America/Argentina/Cordoba,22229
Merlo,Аргентина,-34.66536,-58.72744,America/Argentina/Buenos_Aires,268961
Mercedes,Аргентина,-34.65072,-59.43143,America/Argentina/Buenos_Aires,63284
Mercedes,Аргентина,-29.18416,-58.07519,America/Argentina/Cordoba,30649
Haedo,Аргентина,-34.64239,-58.59212,America/Argentina/Buenos_Aires,37745
Mar del Plata,Аргентина,-38.00042,-57.5562,America/Argentina/Buenos_Aires,593337
Luján,Аргентина,-34.5664,-59.11478,America/Argentina/Buenos_Aires,97363
Los Polvorines,Аргентина,-34.50316,-58.70596,America/Argentina/Buenos_Aires,53354
Lomas de Zamora,Аргентина,-34.7574,-58.40279,America/Argentina/Buenos_Aires,111897
La Plata,Аргентина,-34.92126,-57.95442,America/Argentina/Buenos_Aires,195443
La Paz,Аргентина,-30.74179,-59.64517,America/Argentina/Cordoba,24716
Jardín América,Аргентина,-27.04346,-55.22698,America/Argentina/Cordoba,24905
Ituzaingó,Аргентина,-27.58504,-56.68707,America/Argentina/Cordoba,168419
Hurlingham,Аргентина,-34.5904,-58.62904,America/Argentina/Buenos_Aires,60000
Gualeguaychú,Аргентина,-33.00777,-58.51836,America/Argentina/Cordoba,78676
Gualeguay,Аргентина,-33.14091,-59.31257,America/Argentina/Cordoba,33120
Goya,Аргентина,-29.13995,-59.26343,America/Argentina/Cordoba,70245
Gobernador Virasora,Аргентина,-28.05,-56.03333,America/Argentina/Cordoba,28756
General Pacheco,Аргентина,-34.45256,-58.64312,America/Argentina/Buenos_Aires,43287
General José de San Martín,Аргентина,-26.53643,-59.34138,America/Argentina/Cordoba,31758
Garupá,Аргентина,-27.48315,-55.82924,America/Argentina/Cordoba,28814
Formosa,Аргентина,-26.18489,-58.17313,America/Argentina/Cordoba,222226
Fontana,Аргентина,-27.42039,-59.03731,America/Argentina/Cordoba,26745
Federal,Аргентина,-30.95619,-58.7797,America/Argentina/Cordoba,16333
Esquina,Аргентина,-30.01476,-59.5289,America/Argentina/Cordoba,26399
El Soberbio,Аргентина,-27.29662,-54.19811,America/Argentina/Cordoba,19571
El Palomar,Аргентина,-34.61771,-58.60153,America/Argentina/Buenos_Aires,59031
Don Torcuato,Аргентина,-34.49459,-58.62729,America/Argentina/Buenos_Aires,71356
Dolores,Аргентина,-36.31539,-57.67546,America/Argentina/Buenos_Aires,25190
Curuzú Cuatiá,Аргентина,-29.79145,-58.0499,America/Argentina/Cordoba,36390
Corrientes,Аргентина,-27.46784,-58.8344,America/Argentina/Cordoba,346334
Concordia,Аргентина,-31.39195,-58.01706,America/Argentina/Cordoba,145210
Concepción del Uruguay,Аргентина,-32.48463,-58.23217,America/Argentina/Cordoba,67895
Colón,Аргентина,-32.22312,-58.14426,America/Argentina/Cordoba,58219
Colegiales,Аргентина,-34.57365,-58.44924,America/Argentina/Buenos_Aires,57000
Chascomús,Аргентина,-35.57681,-58.01215,America/Argentina/Buenos_Aires,47524
Chajarí,Аргентина,-30.75482,-57.98196,America/Argentina/Cordoba,30655
Castelar,Аргентина,-34.65142,-58.64074,America/Argentina/Buenos_Aires,107786
Campana,Аргентина,-34.16327,-58.95919,America/Argentina/Buenos_Aires,86860
Buenos Aires,Аргентина,-34.61315,-58.37723,America/Argentina/Buenos_Aires,2891082
Boedo,Аргентина,-34.63333,-58.41667,America/Argentina/Buenos_Aires,48231
Berazategui,Аргентина,-34.76531,-58.21278,America/Argentina/Buenos_Aires,180523
Bella Vista,Аргентина,-34.5651,-58.69034,America/Argentina/Buenos_Aires,79737
Belgrano,Аргентина,-34.5627,-58.45829,America/Argentina/Buenos_Aires,138942
Barranqueras,Аргентина,-27.48132,-58.93925,America/Argentina/Cordoba,50823
Barracas,Аргентина,-34.64966,-58.38341,America/Argentina/Buenos_Aires,77474
Balcarce,Аргентина,-37.84638,-58.25549,America/Argentina/Buenos_Aires,38823
Azul,Аргентина,-36.77803,-59.85848,America/Argentina/Buenos_Aires,53941
Ayacucho,Аргентина,-37.15276,-58.48838,America/Argentina/Buenos_Aires,17364
Avellaneda,Аргентина,-29.11761,-59.65834,America/Argentina/Cordoba,23341
Aristóbulo del Valle,Аргентина,-27.09571,-54.89344,America/Argentina/Cordoba,20683
Apóstoles,Аргентина,-27.91421,-55.75355,America/Argentina/Cordoba,26710
Zapala,Аргентина,-38.90056,-70.06674,America/Argentina/Salta,31534
Yerba Buena,Аргентина,-26.81298,-65.29543,America/Argentina/Tucuman,50783
Villa Regina,Аргентина,-39.09631,-67.08374,America/Argentina/Salta,31209
Villa Paula de Sarmiento,Аргентина,-31.4933,-68.53838,America/Argentina/San_Juan,19092
Villa Nueva,Аргентина,-32.43289,-63.24811,America/Argentina/Cordoba,16841
Villa María,Аргентина,-32.40751,-63.24016,America/Argentina/Cordoba,92453
Villa Dolores,Аргентина,-31.94504,-65.19025,America/Argentina/Cordoba,28009
Villa Constitución,Аргентина,-33.22795,-60.32994,America/Argentina/Cordoba,44271
Villa Carlos Paz,Аргентина,-31.4183,-64.49008,America/Argentina/Cordoba,69451
Villa Ángela,Аргентина,-27.57679,-60.71114,America/Argentina/Cordoba,43511
Villa Allende,Аргентина,-31.29368,-64.2977,America/Argentina/Cordoba,21683
Viedma,Аргентина,-40.81519,-63.0004,America/Argentina/Salta,48940
Victoria,Аргентина,-32.61841,-60.15478,America/Argentina/Cordoba,25139
Vera,Аргентина,-29.45986,-60.21315,America/Argentina/Cordoba,19797
Venado Tuerto,Аргентина,-33.74585,-61.96711,America/Argentina/Cordoba,72340
Veinticinco de Mayo,Аргентина,-35.43247,-60.17156,America/Argentina/Buenos_Aires,24668
Ushuaia,Аргентина,-54.81084,-68.31591,America/Argentina/Ushuaia,56825
Unquillo,Аргентина,-31.23717,-64.31176,America/Argentina/Cordoba,15369
Tres Isletas,Аргентина,-26.34067,-60.43207,America/Argentina/Cordoba,24747
Tres Arroyos,Аргентина,-38.37694,-60.27563,America/Argentina/Buenos_Aires,47136
Trelew,Аргентина,-43.24895,-65.30505,America/Argentina/Catamarca,97915
Termas de Río Hondo,Аргентина,-27.49362,-64.85972,America/Argentina/Cordoba,27838
Tartagal,Аргентина,-22.51682,-63.8056,America/Argentina/Salta,60819
Tafí Viejo,Аргентина,-26.7333,-65.26146,America/Argentina/Tucuman,48459
Sunchales,Аргентина,-30.94478,-61.5597,America/Argentina/Cordoba,18757
Santo Tomé,Аргентина,-31.66274,-60.7653,America/Argentina/Cordoba,59072
Santiago del Estero,Аргентина,-27.80047,-64.26285,America/Argentina/Cordoba,252192
Santa Rosa,Аргентина,-36.61617,-64.28991,America/Argentina/Salta,102860
Santa Lucía,Аргентина,-31.54055,-68.49794,America/Argentina/San_Juan,43565
Santa Fe,Аргентина,-31.64881,-60.70868,America/Argentina/Cordoba,391164
San Salvador de Jujuy,Аргентина,-24.1928,-65.29342,America/Argentina/Jujuy,257970
San Ramón de la Nueva Orán,Аргентина,-23.13705,-64.32426,America/Argentina/Salta,74059
San Rafael,Аргентина,-34.61531,-68.33238,America/Argentina/Mendoza,118009
San Pedro de Jujuy,Аргентина,-24.23127,-64.86614,America/Argentina/Jujuy,58430
San Nicolás de los Arroyos,Аргентина,-33.33425,-60.2108,America/Argentina/Buenos_Aires,134217
San Miguel de Tucumán,Аргентина,-26.81601,-65.21051,America/Argentina/Tucuman,548866
San Martín de los Andes,Аргентина,-40.15789,-71.35337,America/Argentina/Salta,23519
San Martín,Аргентина,-33.08338,-68.47312,America/Argentina/Mendoza,82549
San Luis,Аргентина,-33.2914,-66.32467,America/Argentina/San_Luis,169947
San Justo,Аргентина,-30.78991,-60.59276,America/Argentina/Cordoba,21809
San Juan,Аргентина,-31.53726,-68.52568,America/Argentina/San_Juan,109123
San José de Jáchal,Аргентина,-30.24162,-68.74662,America/Argentina/San_Juan,21018
San Jorge,Аргентина,-31.89706,-61.85993,America/Argentina/Cordoba,16873
San Francisco,Аргентина,-31.42497,-62.08404,America/Argentina/Cordoba,59062
Catamarca,Аргентина,-28.46957,-65.78524,America/Argentina/Catamarca,159139
San Antonio Oeste,Аргентина,-40.73193,-64.94769,America/Argentina/Salta,16966
Salto,Аргентина,-34.29175,-60.2545,America/Argentina/Buenos_Aires,40157
Salta,Аргентина,-24.80645,-65.41999,America/Argentina/Salta,520683
Rufino,Аргентина,-34.26237,-62.71128,America/Argentina/Cordoba,18361
Rosario,Аргентина,-32.94682,-60.63932,America/Argentina/Cordoba,948312
Río Tercero,Аргентина,-32.17675,-64.11295,America/Argentina/Cordoba,53389
Río Segundo,Аргентина,-31.6501,-63.91165,America/Argentina/Cordoba,18155
Río Grande,Аргентина,-53.78773,-67.70975,America/Argentina/Ushuaia,52681
Río Gallegos,Аргентина,-51.6253,-69.25229,America/Argentina/Rio_Gallegos,95796
Río Cuarto,Аргентина,-33.13044,-64.35272,America/Argentina/Cordoba,157010
Río Colorado,Аргентина,-38.99081,-64.09574,America/Argentina/Salta,16132
Río Ceballos,Аргентина,-31.1697,-64.3175,America/Argentina/Cordoba,16632
Rawson,Аргентина,-43.30031,-65.10564,America/Argentina/Catamarca,26335
Rafaela,Аргентина,-31.25285,-61.49078,America/Argentina/Cordoba,88713
Quitilipi,Аргентина,-26.8708,-60.21537,America/Argentina/Cordoba,32083
Punta Alta,Аргентина,-38.8805,-62.07503,America/Argentina/Buenos_Aires,57209
Puerto Madryn,Аргентина,-42.76848,-65.03827,America/Argentina/Catamarca,64555
Profesor Salvador Mazza,Аргентина,-22.04897,-63.69075,America/Argentina/Salta,25000
Presidencia Roque Sáenz Peña,Аргентина,-26.79095,-60.44132,America/Argentina/Cordoba,81879
Pocito,Аргентина,-31.68333,-68.58333,America/Argentina/San_Juan,40969
Plottier,Аргентина,-38.96667,-68.23333,America/Argentina/Salta,25186
Pergamino,Аргентина,-33.89101,-60.57462,America/Argentina/Buenos_Aires,91399
Pérez,Аргентина,-32.99835,-60.76791,America/Argentina/Cordoba,24436
Pehuajó,Аргентина,-35.81081,-61.89897,America/Argentina/Buenos_Aires,44783
Paraná,Аргентина,-31.73271,-60.52897,America/Argentina/Cordoba,247139
Palpalá,Аргентина,-24.25798,-65.21358,America/Argentina/Jujuy,48199
Olavarría,Аргентина,-36.89384,-60.32319,America/Argentina/Buenos_Aires,89721
Nueve de Julio,Аргентина,-35.44394,-60.88463,America/Argentina/Buenos_Aires,34718
Neuquén,Аргентина,-38.95078,-68.0592,America/Argentina/Salta,231198
Morteros,Аргентина,-30.71066,-62.00714,America/Argentina/Cordoba,15129
Monteros,Аргентина,-27.16825,-65.49892,America/Argentina/Tucuman,23771
Mendoza,Аргентина,-32.88946,-68.84582,America/Argentina/Mendoza,114893
Marcos Juárez,Аргентина,-32.6978,-62.10672,America/Argentina/Cordoba,24226
Machagai,Аргентина,-26.92617,-60.04852,America/Argentina/Cordoba,28070
Lincoln,Аргентина,-34.86819,-61.52929,America/Argentina/Buenos_Aires,41808
Libertador General San Martín,Аргентина,-23.81305,-64.79353,America/Argentina/Jujuy,49267
Las Breñas,Аргентина,-27.08819,-61.08217,America/Argentina/Cordoba,26955
La Rioja,Аргентина,-29.41328,-66.85637,America/Argentina/La_Rioja,178872
La Falda,Аргентина,-31.09321,-64.48448,America/Argentina/Cordoba,15112
La Calera,Аргентина,-31.34582,-64.33849,America/Argentina/Cordoba,24796
Laboulaye,Аргентина,-34.12688,-63.39083,America/Argentina/Cordoba,19908
Junín,Аргентина,-34.59391,-60.94644,America/Argentina/Buenos_Aires,87509
Joaquín V. González,Аргентина,-25.11364,-64.12628,America/Argentina/Salta,19185
Jesús María,Аргентина,-30.98153,-64.09424,America/Argentina/Cordoba,26825
Granadero Baigorria,Аргентина,-32.85683,-60.71754,America/Argentina/Cordoba,32427
Gobernador Gálvez,Аргентина,-33.03016,-60.64045,America/Argentina/Cordoba,74650
General Villegas,Аргентина,-35.03264,-63.01484,America/Argentina/Buenos_Aires,16270
General Roca,Аргентина,-39.03333,-67.58333,America/Argentina/Salta,73212
General Pinedo,Аргентина,-27.32534,-61.28101,America/Argentina/Cordoba,15741
General Pico,Аргентина,-35.6593,-63.75787,America/Argentina/Salta,57029
General Mosconi,Аргентина,-22.59617,-63.811,America/Argentina/Salta,19811
Gálvez,Аргентина,-32.02957,-61.22097,America/Argentina/Cordoba,18374
Firmat,Аргентина,-33.45937,-61.4832,America/Argentina/Cordoba,18294
Famaillá,Аргентина,-27.05452,-65.40189,America/Argentina/Tucuman,30951
Esquel,Аргентина,-42.91147,-71.31947,America/Argentina/Catamarca,28486
Esperanza,Аргентина,-31.44957,-60.93153,America/Argentina/Cordoba,35885
Embarcación,Аргентина,-23.21003,-64.09965,America/Argentina/Salta,23961
Embalse,Аргентина,-32.20681,-64.40064,America/Argentina/Cordoba,15900
El Bolsón,Аргентина,-41.96051,-71.53336,America/Argentina/Salta,15537
Diamante,Аргентина,-32.0671,-60.64267,America/Argentina/Cordoba,19545
Deán Funes,Аргентина,-30.42498,-64.35274,America/Argentina/Cordoba,20164
Cutral-Có,Аргентина,-38.93424,-69.23052,America/Argentina/Salta,47380
Cruz del Eje,Аргентина,-30.72644,-64.80387,America/Argentina/Cordoba,28166
Crespo,Аргентина,-32.03077,-60.30619,America/Argentina/Cordoba,18296
Cosquín,Аргентина,-31.24525,-64.46574,America/Argentina/Cordoba,19070
Coronel Suárez,Аргентина,-37.45859,-61.93294,America/Argentina/Buenos_Aires,27000
Coronda,Аргентина,-31.97365,-60.91935,America/Argentina/Cordoba,16975
Córdoba,Аргентина,-31.40648,-64.18853,America/Argentina/Cordoba,2106734
Comodoro Rivadavia,Аргентина,-45.86256,-67.494,America/Argentina/Catamarca,140850
Cipolletti,Аргентина,-38.93392,-67.99032,America/Argentina/Salta,75078
Cinco Saltos,Аргентина,-38.82225,-68.06293,America/Argentina/Salta,19819
Chivilcoy,Аргентина,-34.8969,-60.01909,America/Argentina/Buenos_Aires,54514
Chimbas,Аргентина,-31.49313,-68.53263,America/Argentina/San_Juan,73829
Chilecito,Аргентина,-29.16163,-67.49934,America/Argentina/La_Rioja,42248
Charata,Аргентина,-27.21787,-61.18738,America/Argentina/Cordoba,27813
Chacabuco,Аргентина,-34.64203,-60.47124,America/Argentina/Buenos_Aires,34587
Centenario,Аргентина,-38.82955,-68.1318,America/Argentina/Salta,28956
Caucete,Аргентина,-31.6515,-68.28216,America/Argentina/San_Juan,33609
Catriel,Аргентина,-37.87552,-67.79451,America/Argentina/Salta,15169
Juan José Castelli,Аргентина,-25.9466,-60.62008,America/Argentina/Cordoba,36588
Casilda,Аргентина,-33.04459,-61.16423,America/Argentina/Cordoba,32002
Carmen de Patagones,Аргентина,-40.80255,-62.98349,America/Argentina/Buenos_Aires,20533
Carcarañá,Аргентина,-32.85704,-61.15114,America/Argentina/Cordoba,15619
Capitán Bermúdez,Аргентина,-32.82262,-60.71852,America/Argentina/Cordoba,27060
Cañada de Gómez,Аргентина,-32.82033,-61.39513,America/Argentina/Cordoba,36000
Caleta Olivia,Аргентина,-46.44785,-67.52274,America/Argentina/Rio_Gallegos,36077
Bell Ville,Аргентина,-32.63021,-62.68883,America/Argentina/Cordoba,35105
Bella Vista,Аргентина,-27.03424,-65.30196,America/Argentina/Tucuman,15126
Bahía Blanca,Аргентина,-38.7176,-62.26545,America/Argentina/Buenos_Aires,299101
Arroyo Seco,Аргентина,-33.15365,-60.51168,America/Argentina/Cordoba,20620
Arroyito,Аргентина,-31.41917,-63.05084,America/Argentina/Cordoba,19577
Arrecifes,Аргентина,-34.06306,-60.10261,America/Argentina/Buenos_Aires,26400
Añatuya,Аргентина,-28.4602,-62.83354,America/Argentina/Cordoba,20261
Alta Gracia,Аргентина,-31.64978,-64.42972,America/Argentina/Cordoba,40384
Allen,Аргентина,-38.97736,-67.82714,America/Argentina/Salta,26083
Alderetes,Аргентина,-26.81787,-65.14202,America/Argentina/Tucuman,38466
Albardón,Аргентина,-31.43722,-68.52556,America/Argentina/San_Juan,20413
Aimogasta,Аргентина,-28.56003,-66.80737,America/Argentina/La_Rioja,16625
Aguilares,Аргентина,-27.4315,-65.61465,America/Argentina/Tucuman,32494
Balvanera,Аргентина,-34.61032,-58.39766,America/Argentina/Buenos_Aires,152198
Villa Santa Rita,Аргентина,-34.61082,-58.481,America/Argentina/Buenos_Aires,34000
Villa Mercedes,Аргентина,-33.67571,-65.45783,America/Argentina/San_Luis,96781
San Miguel,Аргентина,-34.54335,-58.71229,America/Argentina/Buenos_Aires,168762
San Carlos de Bariloche,Аргентина,-41.14557,-71.30822,America/Argentina/Salta,95394
Adrogué,Аргентина,-34.80041,-58.38384,America/Argentina/Buenos_Aires,28265
Ingeniero Pablo Nogués,Аргентина,-34.47775,-58.70652,America/Argentina/Buenos_Aires,38470
Villa Sarmiento,Аргентина,-34.63364,-58.57047,America/Argentina/Buenos_Aires,17481
José C. Paz,Аргентина,-34.51541,-58.76813,America/Argentina/Buenos_Aires,230208
Döbling,Австрия,48.25,16.33333,Europe/Vienna,75418
Wolfsberg,Австрия,46.84056,14.84417,Europe/Vienna,25035
Wilten,Австрия,47.25829,11.38808,Europe/Vienna,18142
Wiener Neustadt,Австрия,47.80485,16.23196,Europe/Vienna,44820
Vienna,Австрия,48.20849,16.37208,Europe/Vienna,1691468
Wetzelsdorf,Австрия,47.05293,15.39923,Europe/Vienna,15687
Wels,Австрия,48.16667,14.03333,Europe/Vienna,16857
Villach,Австрия,46.61028,13.85583,Europe/Vienna,58882
Telfs,Австрия,47.30707,11.06817,Europe/Vienna,15229
Straßgang,Австрия,47.03333,15.4,Europe/Vienna,16268
Stockerau,Австрия,48.38333,16.21667,Europe/Vienna,16292
Steyr,Австрия,48.04274,14.42127,Europe/Vienna,38331
Simmering,Австрия,48.18333,16.43333,Europe/Vienna,101420
Sankt Pölten,Австрия,48.20762,15.63725,Europe/Vienna,21911
Sankt Peter,Австрия,47.05,15.46667,Europe/Vienna,15187
Sankt Peter,Австрия,46.62978,14.34016,Europe/Vienna,20320
Sankt Martin,Австрия,46.61667,14.28333,Europe/Vienna,20000
Salzburg,Австрия,47.79941,13.04399,Europe/Vienna,157245
Saalfelden am Steinernen Meer,Австрия,47.42681,12.848,Europe/Vienna,16790
Pradl,Австрия,47.26539,11.4152,Europe/Vienna,32588
Perchtoldsdorf,Австрия,48.11935,16.26607,Europe/Vienna,15047
Ottakring,Австрия,48.21667,16.3,Europe/Vienna,104627
Mödling,Австрия,48.08605,16.28921,Europe/Vienna,20555
Meidling,Австрия,48.16667,16.33333,Europe/Vienna,97624
Lustenau,Австрия,47.42642,9.65851,Europe/Vienna,22821
Linz,Австрия,48.30639,14.28611,Europe/Vienna,204846
Klosterneuburg,Австрия,48.30521,16.32522,Europe/Vienna,15614
Klagenfurt am Wörthersee,Австрия,46.62472,14.30528,Europe/Vienna,100316
Innsbruck,Австрия,47.26266,11.39454,Europe/Vienna,132493
Innere Stadt,Австрия,48.20906,16.37135,Europe/Vienna,16450
Penzing,Австрия,48.2,16.26667,Europe/Vienna,98176
Hötting,Австрия,47.26815,11.36868,Europe/Vienna,35043
Hohenems,Австрия,47.36121,9.68694,Europe/Vienna,16317
Hietzing,Австрия,48.18623,16.2965,Europe/Vienna,54265
Hernals,Австрия,48.22544,16.30871,Europe/Vienna,57546
Graz,Австрия,47.06733,15.44197,Europe/Vienna,303270
Fünfhaus,Австрия,48.19596,16.3183,Europe/Vienna,76396
Floridsdorf,Австрия,48.25,16.4,Europe/Vienna,162779
Feldkirch,Австрия,47.23306,9.6,Europe/Vienna,33420
Essling,Австрия,48.21289,16.52442,Europe/Vienna,21200
Eggenberg,Австрия,47.07,15.39871,Europe/Vienna,20511
Dornbirn,Австрия,47.41427,9.74195,Europe/Vienna,49278
Bregenz,Австрия,47.50311,9.7471,Europe/Vienna,29806
Baden,Австрия,48.00543,16.23264,Europe/Vienna,26286
Aspern,Австрия,48.21806,16.48306,Europe/Vienna,50687
Amstetten,Австрия,48.1229,14.87206,Europe/Vienna,15559
Favoriten,Австрия,48.16116,16.38233,Europe/Vienna,201882
Donaustadt,Австрия,48.2333,16.46002,Europe/Vienna,187007
Jakomini,Австрия,47.05441,15.44984,Europe/Vienna,32912
Lend,Австрия,47.08256,15.41589,Europe/Vienna,31147
Geidorf,Австрия,47.08393,15.444,Europe/Vienna,24767
Sankt Leonhard,Австрия,47.06924,15.45784,Europe/Vienna,15853
Andritz,Австрия,47.11387,15.42348,Europe/Vienna,19020
Gries,Австрия,47.06236,15.42421,Europe/Vienna,29363
Währing,Австрия,48.22611,16.34484,Europe/Vienna,51402
Landstraße,Австрия,48.2019,16.38792,Europe/Vienna,98389
Margareten,Австрия,48.1855,16.35373,Europe/Vienna,54412
Mariahilf,Австрия,48.19571,16.35215,Europe/Vienna,31381
Neubau,Австрия,48.20172,16.34715,Europe/Vienna,31521
Josefstadt,Австрия,48.21243,16.34549,Europe/Vienna,24499
Alsergrund,Австрия,48.22321,16.35506,Europe/Vienna,41645
Brigittenau,Австрия,48.24275,16.37551,Europe/Vienna,86967
Scarborough,Австралия,-31.89578,115.76431,Australia/Perth,17605
Rockingham,Австралия,-32.27682,115.72978,Australia/Perth,15312
Perth,Австралия,-31.95224,115.8614,Australia/Perth,2309338
Mount Isa,Австралия,-20.72523,139.49727,Australia/Brisbane,18317
Morphett Vale,Австралия,-35.13333,138.51667,Australia/Adelaide,24002
Mandurah,Австралия,-32.5269,115.7217,Australia/Perth,90306
Kwinana,Австралия,-32.23013,115.78128,Australia/Perth,30433
Gosnells,Австралия,-32.081,116.0054,Australia/Perth,21149
Geraldton,Австралия,-28.77897,114.61459,Australia/Perth,38595
Gawler,Австралия,-34.60251,138.74902,Australia/Adelaide,20006
Darwin,Австралия,-12.46113,130.84185,Australia/Darwin,139902
Byford,Австралия,-32.22099,116.009,Australia/Perth,18878
Busselton,Австралия,-33.65249,115.3455,Australia/Perth,21898
Bunbury,Австралия,-33.32711,115.64137,Australia/Perth,76452
Australind,Австралия,-33.2792,115.71504,Australia/Perth,15988
Alice Springs,Австралия,-23.69748,133.88362,Australia/Darwin,25186
Albany,Австралия,-35.02692,117.88369,Australia/Perth,35053
Adelaide,Австралия,-34.92866,138.59863,Australia/Adelaide,1469163
Yarraville,Австралия,-37.81667,144.9,Australia/Melbourne,15636
Wollert,Австралия,-37.58333,145.03333,Australia/Melbourne,24407
Wodonga,Австралия,-36.12179,146.88809,Australia/Melbourne,18582
Wheelers Hill,Австралия,-37.9,145.18333,Australia/Melbourne,20652
Westmead,Австралия,-33.80383,150.98768,Australia/Sydney,17835
Werribee,Австралия,-37.9,144.66667,Australia/Melbourne,50027
Warwick,Австралия,-28.21901,152.03438,Australia/Brisbane,15380
Warrnambool,Австралия,-38.38176,142.48799,Australia/Melbourne,29176
Warragul,Австралия,-38.15912,145.93118,Australia/Melbourne,15284
Wantirna South,Австралия,-37.88333,145.21667,Australia/Melbourne,20754
Wangaratta,Австралия,-36.35846,146.32056,Australia/Melbourne,19318
Wahroonga,Австралия,-33.71816,151.11561,Australia/Sydney,17652
Upper Coomera,Австралия,-27.87683,153.28572,Australia/Brisbane,24956
Tuggeranong Administrative District,Австралия,-35.41647,149.06954,Australia/Sydney,89461
Truganina,Австралия,-37.81667,144.75,Australia/Melbourne,36305
Traralgon,Австралия,-38.19528,146.5415,Australia/Melbourne,24605
Townsville,Австралия,-19.26639,146.80569,Australia/Brisbane,180820
Toowoomba,Австралия,-27.56056,151.95386,Australia/Brisbane,140303
Thornbury,Австралия,-37.75819,145.00583,Australia/Melbourne,19005
Thomastown,Австралия,-37.68333,145.01667,Australia/Melbourne,20234
Templestowe,Австралия,-37.75405,145.14864,Australia/Melbourne,16966
Tarneit,Австралия,-37.83634,144.65952,Australia/Melbourne,56370
Taree,Австралия,-31.91099,152.45387,Australia/Sydney,16359
Tamworth,Австралия,-31.09048,150.92905,Australia/Sydney,43874
Sydney,Австралия,-33.86785,151.20732,Australia/Sydney,5557233
Surry Hills,Австралия,-33.88374,151.21282,Australia/Sydney,15828
Surfers Paradise,Австралия,-28.00274,153.42999,Australia/Brisbane,31073
Sunbury,Австралия,-37.57742,144.72607,Australia/Melbourne,38851
Strathfield,Австралия,-33.88096,151.07986,Australia/Sydney,25769
Springvale,Австралия,-37.94853,145.15274,Australia/Melbourne,22174
South Yarra,Австралия,-37.83834,144.99149,Australia/Melbourne,25237
Southport,Австралия,-27.96724,153.39796,Australia/Brisbane,32965
Shepparton,Австралия,-36.38047,145.39867,Australia/Melbourne,51631
Seven Hills,Австралия,-33.78333,150.93333,Australia/Sydney,19196
Seaford,Австралия,-38.1,145.13333,Australia/Melbourne,17215
Saint Kilda,Австралия,-37.8676,144.98099,Australia/Melbourne,19490
Saint Ives,Австралия,-33.72976,151.15977,Australia/Sydney,18384
Saint Albans,Австралия,-37.73333,144.8,Australia/Melbourne,35091
Ryde,Австралия,-33.8188,151.1062,Australia/Sydney,26385
Rowville,Австралия,-37.93333,145.23333,Australia/Melbourne,33571
Rockhampton,Австралия,-23.38032,150.50595,Australia/Brisbane,78592
Rockdale,Австралия,-33.95,151.13333,Australia/Sydney,15436
Ringwood,Австралия,-37.81667,145.23333,Australia/Melbourne,19144
Richmond,Австралия,-37.81819,145.00176,Australia/Melbourne,28587
Reservoir,Австралия,-37.71667,145.0,Australia/Melbourne,51096
Quakers Hill,Австралия,-33.73333,150.88333,Australia/Sydney,26904
Preston,Австралия,-37.75,145.01667,Australia/Melbourne,33790
Port Melbourne,Австралия,-37.83961,144.94228,Australia/Melbourne,17633
Port Macquarie,Австралия,-31.43084,152.90894,Australia/Sydney,45692
Point Cook,Австралия,-37.91482,144.75088,Australia/Melbourne,66781
Pascoe Vale,Австралия,-37.73333,144.93333,Australia/Melbourne,18171
Palm Beach,Австралия,-28.11694,153.46584,Australia/Brisbane,15205
Pakenham,Австралия,-38.07018,145.47411,Australia/Melbourne,54118
Orange,Австралия,-33.28397,149.10018,Australia/Sydney,38408
Officer,Австралия,-38.05916,145.40947,Australia/Melbourne,18503
North Melbourne,Австралия,-37.79798,144.94512,Australia/Melbourne,15395
Northcote,Австралия,-37.76667,145.0,Australia/Melbourne,25276
Noble Park,Австралия,-37.96667,145.16667,Australia/Melbourne,30921
Newcastle,Австралия,-32.92953,151.7801,Australia/Sydney,508437
Nerang,Австралия,-27.98941,153.33633,Australia/Brisbane,16739
Narre Warren,Австралия,-38.03333,145.3,Australia/Melbourne,27689
Narangba,Австралия,-27.20338,152.95923,Australia/Brisbane,18217
Mulgrave,Австралия,-37.92845,145.17708,Australia/Melbourne,19889
Mount Waverley,Австралия,-37.87709,145.12939,Australia/Melbourne,35340
Mount Martha,Австралия,-38.26667,145.01667,Australia/Melbourne,19846
Mount Gambier,Австралия,-37.8318,140.77919,Australia/Adelaide,25030
Mount Eliza,Австралия,-38.18333,145.08333,Australia/Melbourne,18734
Mount Druitt,Австралия,-33.76667,150.81667,Australia/Sydney,16682
Mosman,Австралия,-33.83902,151.23956,Australia/Sydney,27844
Mornington,Австралия,-38.21792,145.03876,Australia/Melbourne,25759
Morayfield,Австралия,-27.10876,152.94907,Australia/Brisbane,21221
South Morang,Австралия,-37.65,145.1,Australia/Melbourne,24989
Mooroolbark,Австралия,-37.78247,145.31682,Australia/Melbourne,23059
Moonee Ponds,Австралия,-37.76667,144.91667,Australia/Melbourne,16224
Mitcham,Австралия,-37.81667,145.2,Australia/Melbourne,16795
Miranda,Австралия,-34.03857,151.10005,Australia/Sydney,15111
Mill Park,Австралия,-37.66667,145.06667,Australia/Melbourne,28712
Mildura,Австралия,-34.18551,142.16251,Australia/Melbourne,32936
Merrylands,Австралия,-33.83333,150.98333,Australia/Sydney,29508
Mernda,Австралия,-37.60075,145.09555,Australia/Melbourne,23369
Melbourne,Австралия,-37.814,144.96332,Australia/Melbourne,5350705
Mascot,Австралия,-33.92598,151.19347,Australia/Sydney,15985
Maryborough,Австралия,-25.54073,152.70493,Australia/Brisbane,15479
Marrickville,Австралия,-33.90741,151.15546,Australia/Sydney,26140
Maroubra,Австралия,-33.95,151.23333,Australia/Sydney,30224
Manly,Австралия,-33.79798,151.28826,Australia/Sydney,16170
Maitland,Австралия,-32.73308,151.5574,Australia/Sydney,89597
Mackay,Австралия,-21.15345,149.16554,Australia/Brisbane,121691
Liverpool,Австралия,-33.91938,150.92588,Australia/Sydney,27545
Lilydale,Австралия,-37.75,145.35,Australia/Melbourne,17348
Lidcombe,Австралия,-33.86436,151.0397,Australia/Sydney,19791
Launceston,Австралия,-41.43876,147.13467,Australia/Hobart,90953
Lara,Австралия,-38.02388,144.40617,Australia/Melbourne,15919
Langwarrin,Австралия,-38.16667,145.16667,Australia/Melbourne,22146
Lalor,Австралия,-37.66667,145.01667,Australia/Melbourne,23219
Lakemba,Австралия,-33.91972,151.07592,Australia/Sydney,16921
Kogarah,Австралия,-33.9681,151.13564,Australia/Sydney,16416
Keysborough,Австралия,-37.99116,145.17385,Australia/Melbourne,30018
Kew,Австралия,-37.80639,145.03086,Australia/Melbourne,24499
Kensington,Австралия,-33.92019,151.22241,Australia/Sydney,15021
Hornsby,Австралия,-33.70244,151.09931,Australia/Sydney,22335
Hobart,Австралия,-42.87936,147.32941,Australia/Hobart,252639
Hawthorn South,Австралия,-37.8329,145.0367,Australia/Melbourne,21177
Hawthorn,Австралия,-37.81992,145.0358,Australia/Melbourne,22322
Hampton Park,Австралия,-38.03333,145.25,Australia/Melbourne,26082
Griffith,Австралия,-34.28853,146.05093,Australia/Sydney,18154
Greenvale,Австралия,-37.63333,144.86667,Australia/Melbourne,21274
Greensborough,Австралия,-37.70462,145.10302,Australia/Melbourne,21070
Granville,Австралия,-33.8406,151.00748,Australia/Sydney,16716
Goulburn,Австралия,-34.75155,149.72086,Australia/Sydney,22645
Gold Coast,Австралия,-28.00029,153.43088,Australia/Brisbane,640778
Glen Waverley,Австралия,-37.87811,145.16476,Australia/Melbourne,42642
Glenroy,Австралия,-37.7,144.93333,Australia/Melbourne,23792
Glen Iris,Австралия,-37.86667,145.06667,Australia/Melbourne,26131
Glenferrie,Австралия,-37.83333,145.05,Australia/Melbourne,21177
Gladstone,Австралия,-23.84852,151.25775,Australia/Brisbane,45185
Geelong,Австралия,-38.14711,144.36069,Australia/Melbourne,268984
Frankston East,Австралия,-38.13333,145.13333,Australia/Melbourne,34457
Frankston,Австралия,-38.14458,145.12291,Australia/Melbourne,37331
Footscray,Австралия,-37.8,144.9,Australia/Melbourne,17131
Fairfield,Австралия,-33.86667,150.95,Australia/Sydney,17932
Essendon,Австралия,-37.74981,144.9109,Australia/Melbourne,21240
Epping,Австралия,-37.65,145.03333,Australia/Melbourne,33489
Epping,Австралия,-33.77271,151.08184,Australia/Sydney,23435
Engadine,Австралия,-34.06564,151.01266,Australia/Sydney,17141
Eltham,Австралия,-37.73333,145.15,Australia/Melbourne,18847
Eight Mile Plains,Австралия,-27.58333,153.1,Australia/Brisbane,15364
Eastwood,Австралия,-33.79176,151.08057,Australia/Sydney,17792
Earlwood,Австралия,-33.9209,151.12506,Australia/Sydney,17592
Dubbo,Австралия,-32.24295,148.60484,Australia/Sydney,43516
Doreen,Австралия,-37.6,145.15,Australia/Melbourne,27122
Doncaster East,Австралия,-37.78761,145.14888,Australia/Melbourne,30926
Doncaster,Австралия,-37.78828,145.12373,Australia/Melbourne,25020
Deer Park,Австралия,-37.76722,144.76657,Australia/Melbourne,18145
Deception Bay,Австралия,-27.19354,153.02631,Australia/Brisbane,19539
Dandenong,Австралия,-37.98333,145.2,Australia/Melbourne,30127
Croydon,Австралия,-37.8,145.28333,Australia/Melbourne,26502
Cronulla,Австралия,-34.06251,151.14961,Australia/Sydney,17703
Cranbourne,Австралия,-38.11342,145.28326,Australia/Melbourne,21281
Craigieburn,Австралия,-37.6,144.95,Australia/Melbourne,65178
Corio,Австралия,-38.08333,144.38333,Australia/Melbourne,15215
Coorparoo,Австралия,-27.49325,153.05826,Australia/Brisbane,15965
Coogee,Австралия,-33.9205,151.25522,Australia/Sydney,15333
Coffs Harbour,Австралия,-30.29626,153.11351,Australia/Sydney,26672
Coburg,Австралия,-37.75,144.96667,Australia/Melbourne,26574
Clayton,Австралия,-37.91667,145.11667,Australia/Melbourne,18988
Wollongong,Австралия,-34.424,150.89345,Australia/Sydney,280153
Chatswood,Австралия,-33.8,151.18333,Australia/Sydney,25140
Cessnock,Австралия,-32.83211,151.35623,Australia/Sydney,15076
Caulfield North,Австралия,-37.8739,145.02485,Australia/Melbourne,16903
Castle Hill,Австралия,-33.73333,151.0,Australia/Sydney,39284
Carrum Downs,Австралия,-38.09968,145.17248,Australia/Melbourne,21976
Carnegie,Австралия,-37.89359,145.05534,Australia/Melbourne,17909
Carlton,Австралия,-37.8,144.96667,Australia/Melbourne,16055
Carlingford,Австралия,-33.78269,151.04888,Australia/Sydney,24131
Capalaba,Австралия,-27.54333,153.20287,Australia/Brisbane,17027
Canberra,Австралия,-35.28346,149.12807,Australia/Sydney,367752
Camberwell,Австралия,-37.84205,145.0694,Australia/Melbourne,21965
Cairns,Австралия,-16.92366,145.76613,Australia/Brisbane,153075
Caboolture,Австралия,-27.08465,152.9511,Australia/Brisbane,26341
Burwood,Австралия,-33.88333,151.1,Australia/Sydney,18224
Burnie,Австралия,-41.05584,145.90375,Australia/Hobart,19972
Bundaberg,Австралия,-24.86621,152.3479,Australia/Brisbane,50148
Buderim,Австралия,-26.68443,153.05705,Australia/Brisbane,28774
Brunswick,Австралия,-37.76667,144.96667,Australia/Melbourne,24896
Broken Hill,Австралия,-31.9652,141.4512,Australia/Broken_Hill,18027
Brisbane,Австралия,-27.46794,153.02809,Australia/Brisbane,2780063
Brighton,Австралия,-37.90561,145.00279,Australia/Melbourne,23252
Boronia,Австралия,-37.86667,145.28333,Australia/Melbourne,23607
Blacktown,Австралия,-33.76667,150.91667,Australia/Sydney,46942
Bexley,Австралия,-33.95,151.11667,Australia/Sydney,19664
Berwick,Австралия,-38.03333,145.35,Australia/Melbourne,50298
Bentleigh East,Австралия,-37.91928,145.05301,Australia/Melbourne,30159
Bentleigh,Австралия,-37.91806,145.03544,Australia/Melbourne,17921
Bendigo,Австралия,-36.75818,144.28024,Australia/Melbourne,103034
Baulkham Hills,Австралия,-33.75881,150.99292,Australia/Sydney,36792
Bathurst,Австралия,-33.41665,149.5806,Australia/Sydney,36230
Banora Point,Австралия,-28.21298,153.53634,Australia/Sydney,15868
Bankstown,Австралия,-33.91667,151.03333,Australia/Sydney,34933
Ballarat,Австралия,-37.56622,143.84957,Australia/Melbourne,116201
Bairnsdale,Австралия,-37.82289,147.61041,Australia/Melbourne,15411
Auburn,Австралия,-33.85,151.03333,Australia/Sydney,37245
Ashfield,Австралия,-33.88834,151.12274,Australia/Sydney,23749
Ascot Vale,Австралия,-37.77988,144.92276,Australia/Melbourne,15197
Armidale,Австралия,-30.50123,151.66553,Australia/Sydney,24504
Albany Creek,Австралия,-27.35364,152.96848,Australia/Brisbane,15532
Maroochydore,Австралия,-26.66008,153.09953,Australia/Brisbane,18342
Cheltenham,Австралия,-37.96944,145.04806,Australia/Melbourne,23992
Randwick,Австралия,-33.91439,151.24895,Australia/Sydney,28943
Dee Why,Австралия,-33.7511,151.28886,Australia/Sydney,21145
Umina Beach,Австралия,-33.52314,151.31325,Australia/Sydney,16413
Palmerston,Австралия,-12.48602,130.9833,Australia/Darwin,25000
Hervey Bay,Австралия,-25.28762,152.76936,Australia/Brisbane,52230
Sydney Central Business District,Австралия,-33.86482,151.20773,Australia/Sydney,25654
Kingsford,Австралия,-33.92399,151.22749,Australia/Sydney,15338
Springfield Lakes,Австралия,-27.66757,152.92488,Australia/Brisbane,15081
Bracken Ridge,Австралия,-27.3171,153.03097,Australia/Brisbane,16701
Kallangur,Австралия,-27.25204,152.99226,Australia/Brisbane,20222
North Lakes,Австралия,-27.22426,153.02075,Australia/Brisbane,21260
The Gap,Австралия,-27.44187,152.93861,Australia/Brisbane,16371
Caroline Springs,Австралия,-37.74124,144.73631,Australia/Melbourne,24488
Hoppers Crossing,Австралия,-37.88264,144.7003,Australia/Melbourne,37216
Logan City,Австралия,-27.63917,153.10944,Australia/Brisbane,326615
Carindale,Австралия,-27.50578,153.10236,Australia/Brisbane,15418
Parramatta,Австралия,-33.8178,151.00348,Australia/Sydney,26876
Ferntree Gully,Австралия,-37.88461,145.29539,Australia/Melbourne,27398
Adelaide Hills,Австралия,-34.91119,138.70735,Australia/Adelaide,60394
Canning Vale,Австралия,-32.05799,115.91814,Australia/Perth,34504
Glenmore Park,Австралия,-33.79068,150.6693,Australia/Sydney,22863
Southbank,Австралия,-37.8228,144.96434,Australia/Melbourne,22631
Docklands,Австралия,-37.8149,144.95052,Australia/Melbourne,15495
Helensvale,Австралия,-27.91828,153.33275,Australia/Brisbane,16839
Elwood,Австралия,-37.88214,144.98215,Australia/Melbourne,15153
Balwyn North,Австралия,-37.79086,145.09386,Australia/Melbourne,20015
Malvern East,Австралия,-37.87397,145.04253,Australia/Melbourne,22296
Brighton East,Австралия,-37.90232,145.01734,Australia/Melbourne,16757
Redbank Plains,Австралия,-27.64613,152.85965,Australia/Brisbane,19094
Labrador,Австралия,-27.94402,153.39815,Australia/Brisbane,18326
St Albans,Австралия,-37.74496,144.80049,Australia/Melbourne,37629
Endeavour Hills,Австралия,-37.97695,145.25866,Australia/Melbourne,24455
Kellyville,Австралия,-33.71028,150.95095,Australia/Sydney,27676
Taylors Lakes,Австралия,-37.69863,144.78631,Australia/Melbourne,15174
Cherrybrook,Австралия,-33.72197,151.04607,Australia/Sydney,18588
Roxburgh Park,Австралия,-37.62581,144.92555,Australia/Melbourne,24129
Prestons,Австралия,-33.94185,150.8717,Australia/Sydney,15312
Wyndham Vale,Австралия,-37.89138,144.62368,Australia/Melbourne,20518
Ballajura,Австралия,-31.84062,115.89549,Australia/Perth,18459
Willetton,Австралия,-32.05251,115.88782,Australia/Perth,19262
Glenwood,Австралия,-33.73333,150.93284,Australia/Sydney,16040
Cabramatta,Австралия,-33.89743,150.93446,Australia/Sydney,21634
Campsie,Австралия,-33.9125,151.10279,Australia/Sydney,24487
Casula,Австралия,-33.95222,150.89949,Australia/Sydney,15695
Cranebrook,Австралия,-33.7061,150.7094,Australia/Sydney,15649
Greenacre,Австралия,-33.90034,151.05563,Australia/Sydney,24361
Greystanes,Австралия,-33.82346,150.94607,Australia/Sydney,23511
Ellenbrook,Австралия,-31.76737,115.96936,Australia/Perth,24668
Alexandra Hills,Австралия,-27.53221,153.22889,Australia/Brisbane,16043
Calamvale,Австралия,-27.62329,153.04785,Australia/Brisbane,16927
Yagoona,Австралия,-33.9049,151.01996,Australia/Sydney,17908
Highton,Австралия,-38.17058,144.3114,Australia/Melbourne,18388
Pacific Pines,Австралия,-27.93994,153.31436,Australia/Brisbane,16605
Robina,Австралия,-28.07071,153.39329,Australia/Brisbane,23140
Paralowie,Австралия,-34.75705,138.60819,Australia/Adelaide,16530
Baldivis,Австралия,-32.32889,115.83047,Australia/Perth,37697
Dianella,Австралия,-31.88822,115.87186,Australia/Perth,24169
Duncraig,Австралия,-31.83291,115.7759,Australia/Perth,15982
Morley,Австралия,-31.88775,115.9099,Australia/Perth,22539
Thornlie,Австралия,-32.06003,115.955,Australia/Perth,23665
Landsdale,Австралия,-31.8075,115.86599,Australia/Perth,15401
Punchbowl,Австралия,-33.92893,151.05111,Australia/Sydney,20174
Parafield Gardens,Австралия,-34.78254,138.61077,Australia/Adelaide,16872
Hillside,Австралия,-37.69047,144.74172,Australia/Melbourne,17331
St Clair,Австралия,-33.79728,150.7847,Australia/Sydney,19856
Kirwan,Австралия,-19.30323,146.72531,Australia/Brisbane,21034
Bundoora,Австралия,-37.69825,145.05967,Australia/Melbourne,28068
Forest Lake,Австралия,-27.62563,152.96883,Australia/Brisbane,22581
Sunnybank Hills,Австралия,-27.61025,153.05388,Australia/Brisbane,17842
Rochedale South,Австралия,-27.59521,153.12332,Australia/Brisbane,15073
Keilor East,Австралия,-37.73261,144.86504,Australia/Melbourne,15078
Cranbourne East,Австралия,-38.11531,145.29814,Australia/Melbourne,24679
Cranbourne North,Австралия,-38.07758,145.29871,Australia/Melbourne,24683
Cranbourne West,Австралия,-38.0965,145.26707,Australia/Melbourne,19969
Narre Warren South,Австралия,-38.04369,145.2923,Australia/Melbourne,30909
Dandenong North,Австралия,-37.96649,145.2081,Australia/Melbourne,22550
Frankston South,Австралия,-38.16604,145.13643,Australia/Melbourne,18801
Sunshine West,Австралия,-37.79117,144.81637,Australia/Melbourne,18552
Altona Meadows,Австралия,-37.88413,144.78367,Australia/Melbourne,18479
Taylors Hill,Австралия,-37.70988,144.75483,Australia/Melbourne,15419
Hurstville,Австралия,-33.9677,151.10149,Australia/Sydney,29744
West Pennant Hills,Австралия,-33.7457,151.04764,Australia/Sydney,16162
City of Port Phillip,Австралия,-37.83382,144.93834,Australia/Melbourne,112669
Sunshine Coast,Австралия,-26.65682,153.07955,Australia/Brisbane,346522
Melbourne City Centre,Австралия,-37.81501,144.96657,Australia/Melbourne,60057
Adelaide city centre,Австралия,-34.92873,138.60334,Australia/Adelaide,19820
Wollongong city centre,Австралия,-34.4279,150.89268,Australia/Sydney,19108
Tanki Leendert,AW,12.53914,-70.02004,America/Aruba,21500
San Nicolas,AW,12.43624,-69.90713,America/Aruba,15200
Oranjestad,AW,12.52398,-70.02703,America/Aruba,29998
Noord,AW,12.56596,-70.03198,America/Aruba,24193
Əhmədbəyli,Азербайджан,39.88074,48.39158,Asia/Baku,17242
Şuşa,Азербайджан,39.76006,46.74989,Asia/Baku,18662
Salyan,Азербайджан,39.59621,48.98479,Asia/Baku,36555
Saatlı,Азербайджан,39.93214,48.36892,Asia/Baku,87000
Neftçala,Азербайджан,39.3768,49.247,Asia/Baku,18661
Naxçıvan,Азербайджан,39.20889,45.41222,Asia/Baku,97200
Lerik,Азербайджан,38.77388,48.41497,Asia/Baku,87000
Lankaran,Азербайджан,38.75428,48.85062,Asia/Baku,240300
Imishli,Азербайджан,39.87095,48.05995,Asia/Baku,34178
Fizuli,Азербайджан,39.60094,47.14529,Asia/Baku,26765
Jalilabad,Азербайджан,39.20963,48.49186,Asia/Baku,36259
Pushkino,Азербайджан,39.45833,48.545,Asia/Baku,18182
Beylagan,Азербайджан,39.77556,47.61861,Asia/Baku,15599
Astara,Азербайджан,38.45598,48.87498,Asia/Baku,15190
Şirvan,Азербайджан,39.93778,48.929,Asia/Baku,70220
Ağdam,Азербайджан,39.99096,46.92736,Asia/Baku,39451
Zaqatala,Азербайджан,41.6316,46.64479,Asia/Baku,32171
Zabrat,Азербайджан,40.47746,49.94174,Asia/Baku,21396
Yevlakh,Азербайджан,40.61832,47.15014,Asia/Baku,127400
Göygöl,Азербайджан,40.58584,46.3189,Asia/Baku,17816
Xaçmaz,Азербайджан,41.46426,48.80565,Asia/Baku,37175
Ujar,Азербайджан,40.51902,47.65423,Asia/Baku,15741
Tovuz,Азербайджан,40.99249,45.62838,Asia/Baku,177200
Terter,Азербайджан,40.34201,46.93161,Asia/Baku,18185
Sumqayıt,Азербайджан,40.58972,49.66861,Asia/Baku,358675
Qaraçuxur,Азербайджан,40.39667,49.97361,Asia/Baku,72989
Shamkhor,Азербайджан,40.82975,46.0178,Asia/Baku,35421
Shamakhi,Азербайджан,40.63141,48.64137,Asia/Baku,29403
Sheki,Азербайджан,41.19194,47.17056,Asia/Baku,68400
Sabunçu,Азербайджан,40.4425,49.94806,Asia/Baku,20996
Sabirabad,Азербайджан,40.00869,48.47701,Asia/Baku,30612
Qusar,Азербайджан,41.4275,48.4302,Asia/Baku,16022
Quba,Азербайджан,41.36108,48.51341,Asia/Baku,22405
Hacıqabul,Азербайджан,40.03874,48.94286,Asia/Baku,23102
Qazax,Азербайджан,41.09246,45.36561,Asia/Baku,18903
Hacı Zeynalabdin,Азербайджан,40.62333,49.55861,Asia/Baku,19019
Mingachevir,Азербайджан,40.76422,47.06227,Asia/Baku,106048
Maştağa,Азербайджан,40.52983,50.00616,Asia/Baku,40092
Mardakan,Азербайджан,40.49182,50.14292,Asia/Baku,15267
Lokbatan,Азербайджан,40.3256,49.73376,Asia/Baku,30694
Kyurdarmir,Азербайджан,40.34257,48.15649,Asia/Baku,19088
Khirdalan,Азербайджан,40.44808,49.75502,Asia/Baku,37949
İsmayıllı,Азербайджан,40.78485,48.15141,Asia/Baku,28776
Yeni Suraxanı,Азербайджан,40.43026,50.03598,Asia/Baku,16127
Göyçay,Азербайджан,40.65055,47.74219,Asia/Baku,42500
Hövsan,Азербайджан,40.37444,50.08528,Asia/Baku,36293
Ganja,Азербайджан,40.68157,46.36134,Asia/Baku,335600
Divichibazar,Азербайджан,41.20117,48.98712,Asia/Baku,23248
Buzovna,Азербайджан,40.51903,50.11438,Asia/Baku,24795
Biny Selo,Азербайджан,40.45076,50.08686,Asia/Baku,24596
Barda,Азербайджан,40.37577,47.12619,Asia/Baku,37372
Bilajari,Азербайджан,40.4444,49.80566,Asia/Baku,42194
Baku,Азербайджан,40.37767,49.89201,Asia/Baku,1116513
Amirdzhan,Азербайджан,40.42639,49.98361,Asia/Baku,26798
Aghsu,Азербайджан,40.57028,48.40087,Asia/Baku,17209
Ağdaş,Азербайджан,40.64699,47.4738,Asia/Baku,23528
Agdzhabedy,Азербайджан,40.05015,47.45937,Asia/Baku,43000
Bakıxanov,Азербайджан,40.41894,49.96693,Asia/Baku,66686
Zenica,Босния и Герцеговина,44.20169,17.90397,Europe/Sarajevo,164423
Visoko,Босния и Герцеговина,43.98889,18.17806,Europe/Sarajevo,17890
Velika Kladuša,Босния и Герцеговина,45.18497,15.80579,Europe/Sarajevo,19330
Tuzla,Босния и Герцеговина,44.53842,18.66709,Europe/Sarajevo,142486
Trebinje,Босния и Герцеговина,42.71197,18.34362,Europe/Sarajevo,33178
Travnik,Босния и Герцеговина,44.22637,17.66583,Europe/Sarajevo,31127
Sarajevo,Босния и Герцеговина,43.84864,18.35644,Europe/Sarajevo,696731
Prijedor,Босния и Герцеговина,44.97991,16.71401,Europe/Sarajevo,36347
Mostar,Босния и Герцеговина,43.34333,17.80806,Europe/Sarajevo,104518
Lukavac,Босния и Герцеговина,44.54245,18.52618,Europe/Sarajevo,44520
Ilidža,Босния и Герцеговина,43.83148,18.30697,Europe/Sarajevo,71277
Gradačac,Босния и Герцеговина,44.87851,18.42764,Europe/Sarajevo,15659
Gračanica,Босния и Герцеговина,44.70307,18.3101,Europe/Sarajevo,15758
Goražde,Босния и Герцеговина,43.66795,18.97564,Europe/Sarajevo,17650
Doboj,Босния и Герцеговина,44.73179,18.08698,Europe/Sarajevo,27235
Cazin,Босния и Герцеговина,44.96694,15.94306,Europe/Sarajevo,21741
Bugojno,Босния и Герцеговина,44.05722,17.45083,Europe/Sarajevo,41378
Brčko,Босния и Герцеговина,44.87162,18.8163,Europe/Sarajevo,38968
Bosanska Krupa,Босния и Герцеговина,44.8825,16.15139,Europe/Sarajevo,15193
Bijeljina,Босния и Герцеговина,44.75874,19.21437,Europe/Sarajevo,37692
Bihać,Босния и Герцеговина,44.81694,15.87083,Europe/Sarajevo,75641
Banja Luka,Босния и Герцеговина,44.77879,17.20629,Europe/Sarajevo,221106
Konjic,Босния и Герцеговина,43.65126,17.96082,Europe/Sarajevo,15950
Bridgetown,BB,13.10732,-59.62021,America/Barbados,98511
Thākurgaon,Бангладеш,26.03097,88.46989,Asia/Dhaka,71096
Teknāf,Бангладеш,20.85829,92.29773,Asia/Dhaka,40557
Tungi,Бангладеш,23.89154,90.40232,Asia/Dhaka,337579
Sylhet,Бангладеш,24.89904,91.87198,Asia/Dhaka,237000
Dohār,Бангладеш,23.59311,90.14251,Asia/Dhaka,45543
Sunāmganj,Бангладеш,25.06889,91.40243,Asia/Dhaka,74570
Jamālpur,Бангладеш,24.91965,89.94812,Asia/Dhaka,167900
Shibganj,Бангладеш,25.00146,89.32266,Asia/Dhaka,378701
Shibganj,Бангладеш,24.68501,88.15638,Asia/Dhaka,35961
Sātkhira,Бангладеш,22.70817,89.07185,Asia/Dhaka,128918
Sirajganj,Бангладеш,24.45771,89.70802,Asia/Dhaka,127481
Netrakona,Бангладеш,24.88352,90.72898,Asia/Dhaka,79016
Narsingdi,Бангладеш,23.92298,90.71768,Asia/Dhaka,281080
Sandwīp,Бангладеш,22.51409,91.45491,Asia/Dhaka,52152
Shāhzādpur,Бангладеш,24.17687,89.5988,Asia/Dhaka,102420
Rāmganj,Бангладеш,23.1006,90.84989,Asia/Dhaka,55241
Rajshahi,Бангладеш,24.374,88.60114,Asia/Dhaka,763580
Pirojpur,Бангладеш,22.57965,89.97521,Asia/Dhaka,54418
Panchagarh,Бангладеш,26.33338,88.55777,Asia/Dhaka,48531
Patiya,Бангладеш,22.29543,91.979,Asia/Dhaka,51360
Parbatipur,Бангладеш,25.66369,88.93093,Asia/Dhaka,48020
Nārāyanganj,Бангладеш,23.61352,90.50298,Asia/Dhaka,223622
Nālchiti,Бангладеш,22.63696,90.27195,Asia/Dhaka,38703
Nāgarpur,Бангладеш,24.05783,89.87696,Asia/Dhaka,238422
Nageswari,Бангладеш,25.96817,89.69153,Asia/Dhaka,49425
Mymensingh,Бангладеш,24.75636,90.40646,Asia/Dhaka,225126
Muktāgācha,Бангладеш,24.76484,90.25698,Asia/Dhaka,24684
Mirzāpur,Бангладеш,24.10287,90.09841,Asia/Dhaka,41137
Maulavi Bāzār,Бангладеш,24.48888,91.77075,Asia/Dhaka,57441
Morrelgonj,Бангладеш,22.45566,89.85584,Asia/Dhaka,31647
Mehendiganj,Бангладеш,22.82257,90.52859,Asia/Dhaka,39424
Mathba,Бангладеш,22.28616,89.95883,Asia/Dhaka,29760
Lalmonirhat,Бангладеш,25.91719,89.44595,Asia/Dhaka,65127
Lākshām,Бангладеш,23.24018,91.12143,Asia/Dhaka,82290
Comilla,Бангладеш,23.46186,91.18503,Asia/Dhaka,1030000
Rangpur,Бангладеш,25.74664,89.25166,Asia/Dhaka,1031388
Kushtia,Бангладеш,23.9028,89.11943,Asia/Dhaka,135724
Kālīganj,Бангладеш,23.40964,89.13801,Asia/Dhaka,45631
Jhingergācha,Бангладеш,23.11134,89.09061,Asia/Dhaka,41957
Joypur Hāt,Бангладеш,25.10147,89.02734,Asia/Dhaka,73068
Ishwardi,Бангладеш,24.12858,89.06573,Asia/Dhaka,81995
Habiganj,Бангладеш,24.38044,91.41299,Asia/Dhaka,88760
Gaurnadi,Бангладеш,22.97372,90.22376,Asia/Dhaka,40519
Gafargaon,Бангладеш,24.432,90.5585,Asia/Dhaka,34177
Feni,Бангладеш,23.0144,91.3966,Asia/Dhaka,84028
Rāipur,Бангладеш,23.0391,90.76808,Asia/Dhaka,64652
Sarankhola,Бангладеш,22.31006,89.79113,Asia/Dhaka,36470
Ramna Maidan,Бангладеш,23.73333,90.4,Asia/Dhaka,143677
Dhaka,Бангладеш,23.7104,90.40744,Asia/Dhaka,10356500
Chilmāri,Бангладеш,25.55613,89.67097,Asia/Dhaka,49736
Chhāgalnāiya,Бангладеш,23.02475,91.51091,Asia/Dhaka,39335
Lālmohan,Бангладеш,22.33774,90.73708,Asia/Dhaka,42220
Khagrachhari,Бангладеш,23.10787,91.97007,Asia/Dhaka,50364
Chhātak,Бангладеш,25.03852,91.66958,Asia/Dhaka,39218
Bhātpāra Abhaynagar,Бангладеш,23.01472,89.43936,Asia/Dhaka,42653
Bherāmāra,Бангладеш,24.02452,88.99234,Asia/Dhaka,38159
Bhairab Bāzār,Бангладеш,24.0524,90.9764,Asia/Dhaka,105457
Bāndarban,Бангладеш,22.19534,92.21946,Asia/Dhaka,495272
Kālia,Бангладеш,23.043,89.63094,Asia/Dhaka,40492
Baniachang,Бангладеш,24.51863,91.35787,Asia/Dhaka,37807
Bājitpur,Бангладеш,24.21623,90.95002,Asia/Dhaka,34560
Bagerhat,Бангладеш,22.65657,89.79123,Asia/Dhaka,266388
Badarganj,Бангладеш,25.67419,89.05377,Asia/Dhaka,32600
Narail,Бангладеш,23.15509,89.49515,Asia/Dhaka,55112
Tungipāra,Бангладеш,22.89983,89.90326,Asia/Dhaka,62210
Sonārgaon,Бангладеш,23.65,90.61667,Asia/Dhaka,130000
Shāhbāzpur Town,Бангладеш,24.05296,91.17193,Asia/Dhaka,29757
Sarishābāri,Бангладеш,24.75127,89.83126,Asia/Dhaka,81325
Sakhipur,Бангладеш,24.31988,90.16943,Asia/Dhaka,40869
Raojān,Бангладеш,22.53511,91.91919,Asia/Dhaka,25708
Phultala,Бангладеш,22.71673,89.51194,Asia/Dhaka,37985
Pālang,Бангладеш,23.21824,90.35076,Asia/Dhaka,67652
Pār Naogaon,Бангладеш,24.80418,88.94875,Asia/Dhaka,192464
Nagar Naluākot,Бангладеш,24.15608,90.7728,Asia/Dhaka,273000
Nabīnagar,Бангладеш,23.88791,90.96792,Asia/Dhaka,31671
Mohāmmadpur,Бангладеш,24.89843,88.52844,Asia/Dhaka,527571
Mātuail,Бангладеш,23.71211,90.45983,Asia/Dhaka,34310
Maijdi,Бангладеш,22.86667,91.1,Asia/Dhaka,132185
Lakshmīpur,Бангладеш,22.9443,90.83005,Asia/Dhaka,61703
Kesabpur,Бангладеш,22.90725,89.21954,Asia/Dhaka,30926
Kāfrul,Бангладеш,23.78822,90.37359,Asia/Dhaka,339734
Gazipur,Бангладеш,23.99844,90.42234,Asia/Dhaka,2674697
Hājīganj,Бангладеш,23.25191,90.85508,Asia/Dhaka,44343
Gopālganj,Бангладеш,23.22348,90.06041,Asia/Dhaka,51346
Farīdpur,Бангладеш,23.60612,89.84064,Asia/Dhaka,112187
Dukuria,Бангладеш,23.71095,90.37414,Asia/Dhaka,37894
Dohazāri,Бангладеш,22.16385,92.07333,Asia/Dhaka,40147
Dinajpur,Бангладеш,25.62745,88.63779,Asia/Dhaka,206234
Uttar Char Fasson,Бангладеш,22.22647,90.71275,Asia/Dhaka,48305
Chattogram,Бангладеш,22.3384,91.83168,Asia/Dhaka,3920222
Char Bhadrāsan,Бангладеш,23.30916,90.22698,Asia/Dhaka,34423
Charāmaddi,Бангладеш,22.642,90.42598,Asia/Dhaka,18122
Chāndpur,Бангладеш,23.22714,90.65433,Asia/Dhaka,203000
Burirchar,Бангладеш,22.13991,90.20636,Asia/Dhaka,29542
Bhātāra,Бангладеш,23.8,90.45,Asia/Dhaka,324300
Bera,Бангладеш,24.07821,89.63262,Asia/Dhaka,39604
Burhānuddin,Бангладеш,22.49518,90.72391,Asia/Dhaka,45670
Ayla Patakata,Бангладеш,22.21726,90.20959,Asia/Dhaka,19782
Āshuganj City,Бангладеш,24.04016,91.0117,Asia/Dhaka,180654
Sātkania,Бангладеш,22.07639,92.04955,Asia/Dhaka,52005
Cox’s Bāzār,Бангладеш,21.43973,92.00955,Asia/Dhaka,253788
Khulna,Бангладеш,22.80979,89.56439,Asia/Dhaka,1500689
Bhola,Бангладеш,22.68759,90.64403,Asia/Dhaka,99079
Barishal,Бангладеш,22.70497,90.37013,Asia/Dhaka,202242
Rāngāmāti,Бангладеш,22.64317,92.19186,Asia/Dhaka,106060
Jessore,Бангладеш,23.16971,89.21371,Asia/Dhaka,243987
Brāhmanbāria,Бангладеш,23.97464,91.11228,Asia/Dhaka,264326
Pābna,Бангладеш,24.00644,89.2372,Asia/Dhaka,186781
Tāngāil,Бангладеш,24.24984,89.91655,Asia/Dhaka,180144
Bogra,Бангладеш,24.85098,89.37108,Asia/Dhaka,210000
Pīrgaaj,Бангладеш,25.85587,88.35943,Asia/Dhaka,34606
Nawābganj,Бангладеш,24.59025,88.27444,Asia/Dhaka,142361
Madaripur,Бангладеш,23.17097,90.20935,Asia/Dhaka,84789
Sherpur,Бангладеш,25.01881,90.01751,Asia/Dhaka,107419
Kishorganj,Бангладеш,24.43944,90.78291,Asia/Dhaka,90690
Mānikganj,Бангладеш,23.85768,90.00957,Asia/Dhaka,71698
Savar,Бангладеш,23.84858,90.25002,Asia/Dhaka,286008
Hāthazāri,Бангладеш,22.50515,91.81339,Asia/Dhaka,498179
Manikchari,Бангладеш,22.83957,91.84128,Asia/Dhaka,24813
Bhāndāria,Бангладеш,22.48898,90.06273,Asia/Dhaka,30219
Bibir Hat,Бангладеш,22.68347,91.79058,Asia/Dhaka,89030
Saidpur,Бангладеш,25.77769,88.89169,Asia/Dhaka,199422
Taluker Char Doani,Бангладеш,22.14002,89.94137,Asia/Dhaka,24563
Natona,Бангладеш,22.05128,90.03197,Asia/Dhaka,19705
Puthia,Бангладеш,24.36537,88.83431,Asia/Dhaka,159406
Natore,Бангладеш,24.41112,88.98673,Asia/Dhaka,369138
Srimangal,Бангладеш,24.30652,91.72955,Asia/Dhaka,23332
Patuakhali,Бангладеш,22.36833,90.3458,Asia/Dhaka,65000
Dhanmondi,Бангладеш,23.74,90.385,Asia/Dhaka,54210
Pallabi,Бангладеш,23.825,90.37,Asia/Dhaka,597574
Azimpur,Бангладеш,23.7298,90.3854,Asia/Dhaka,96641
Paotana Hat,Бангладеш,25.66473,89.5026,Asia/Dhaka,45911
Karnaphuli,Бангладеш,22.69056,92.23472,Asia/Dhaka,203697
Bhanga,Бангладеш,23.39194,89.98389,Asia/Dhaka,43202
Paltan,Бангладеш,23.73625,90.41426,Asia/Dhaka,184492
Mirpur Model Thana,Бангладеш,23.80931,90.36093,Asia/Dhaka,546503
Zwijndrecht,Бельгия,51.21979,4.32664,Europe/Brussels,18249
Zwevegem,Бельгия,50.81268,3.33848,Europe/Brussels,23358
Zottegem,Бельгия,50.86955,3.81052,Europe/Brussels,24434
Zonhoven,Бельгия,50.99064,5.36819,Europe/Brussels,19922
Zolder,Бельгия,51.02455,5.30983,Europe/Brussels,17289
Zemst,Бельгия,50.98318,4.46079,Europe/Brussels,21096
Zele,Бельгия,51.06566,4.0403,Europe/Brussels,20236
Zedelgem,Бельгия,51.14236,3.1368,Europe/Brussels,21968
Zaventem,Бельгия,50.88365,4.47298,Europe/Brussels,28188
Wondelgem,Бельгия,51.08705,3.70909,Europe/Brussels,23546
Woluwe-Saint-Lambert,Бельгия,50.84389,4.42912,Europe/Brussels,56584
Wilrijk,Бельгия,51.16734,4.39513,Europe/Brussels,41403
Willebroek,Бельгия,51.06041,4.36019,Europe/Brussels,22808
Wevelgem,Бельгия,50.8,3.16667,Europe/Brussels,30954
Wetteren,Бельгия,51.00526,3.88341,Europe/Brussels,22930
Westerlo,Бельгия,51.09049,4.91544,Europe/Brussels,22579
Wervik,Бельгия,50.78069,3.03854,Europe/Brussels,17340
Wavre,Бельгия,50.71717,4.60138,Europe/Brussels,34305
Watermael-Boitsfort,Бельгия,50.80154,4.41436,Europe/Brussels,25157
Waterloo,Бельгия,50.71469,4.3991,Europe/Brussels,29778
Waregem,Бельгия,50.88898,3.42756,Europe/Brussels,35896
Walcourt,Бельгия,50.25401,4.43796,Europe/Brussels,17501
Visé,Бельгия,50.7376,5.69907,Europe/Brussels,17054
Vilvoorde,Бельгия,50.92814,4.42938,Europe/Brussels,36955
Verviers,Бельгия,50.58907,5.86241,Europe/Brussels,52824
Uccle,Бельгия,50.80225,4.33943,Europe/Brussels,82929
Turnhout,Бельгия,51.32254,4.94471,Europe/Brussels,44000
Tubize,Бельгия,50.69059,4.2009,Europe/Brussels,18000
Tournai,Бельгия,50.60715,3.38932,Europe/Brussels,69554
Torhout,Бельгия,51.0656,3.10085,Europe/Brussels,18933
Tongeren,Бельгия,50.78054,5.46484,Europe/Brussels,29816
Tienen,Бельгия,50.80745,4.9378,Europe/Brussels,31743
Tielt,Бельгия,50.99931,3.32707,Europe/Brussels,19299
Tessenderlo,Бельгия,51.06513,5.08856,Europe/Brussels,16574
Tervuren,Бельгия,50.82372,4.51418,Europe/Brussels,20623
Temse,Бельгия,51.12794,4.21372,Europe/Brussels,26054
Stekene,Бельгия,51.2099,4.03651,Europe/Brussels,16989
Stabroek,Бельгия,51.33189,4.37127,Europe/Brussels,17294
Soumagne,Бельгия,50.61385,5.74679,Europe/Brussels,15237
Soignies,Бельгия,50.57904,4.07129,Europe/Brussels,24869
Sint-Truiden,Бельгия,50.81679,5.18647,Europe/Brussels,37859
Sint-Pieters-Leeuw,Бельгия,50.77926,4.24355,Europe/Brussels,30446
Sint-Niklaas,Бельгия,51.16509,4.1437,Europe/Brussels,69010
Sint-Kruis,Бельгия,51.21399,3.24949,Europe/Brussels,16000
Sint-Katelijne-Waver,Бельгия,51.06691,4.53469,Europe/Brussels,19487
Sint-Gillis-Waas,Бельгия,51.21914,4.12374,Europe/Brussels,17658
Sint-Genesius-Rode,Бельгия,50.74645,4.35754,Europe/Brussels,17990
Sint-Andries,Бельгия,51.19696,3.17891,Europe/Brussels,19336
Sint-Amandsberg,Бельгия,51.05947,3.74943,Europe/Brussels,32115
Seraing,Бельгия,50.58362,5.50115,Europe/Brussels,60737
Schoten,Бельгия,51.25251,4.50268,Europe/Brussels,33622
Schilde,Бельгия,51.24107,4.58336,Europe/Brussels,20373
Schaerbeek,Бельгия,50.86935,4.37737,Europe/Brussels,132761
Saint-Nicolas,Бельгия,50.62837,5.53243,Europe/Brussels,22586
Saint-Josse-ten-Noode,Бельгия,50.8538,4.37282,Europe/Brussels,27366
Saint-Gilles,Бельгия,50.82763,4.34389,Europe/Brussels,50221
Saint-Ghislain,Бельгия,50.44816,3.81886,Europe/Brussels,22500
Rotselaar,Бельгия,50.95302,4.71665,Europe/Brussels,15007
Ronse,Бельгия,50.74574,3.6005,Europe/Brussels,24204
Roeselare,Бельгия,50.94653,3.12269,Europe/Brussels,56016
Rixensart,Бельгия,50.71229,4.52529,Europe/Brussels,21616
Riemst,Бельгия,50.80995,5.60131,Europe/Brussels,15809
Ranst,Бельгия,51.18983,4.56533,Europe/Brussels,17405
Quaregnon,Бельгия,50.44067,3.8653,Europe/Brussels,18491
Puurs,Бельгия,51.07409,4.28844,Europe/Brussels,15944
Putte,Бельгия,51.05337,4.63263,Europe/Brussels,15276
Poperinge,Бельгия,50.85386,2.72659,Europe/Brussels,19537
Pont-à-Celles,Бельгия,50.50518,4.36887,Europe/Brussels,15909
Péruwelz,Бельгия,50.50819,3.59373,Europe/Brussels,16647
Peer,Бельгия,51.1303,5.45952,Europe/Brussels,15551
Overijse,Бельгия,50.77436,4.53461,Europe/Brussels,23486
Oupeye,Бельгия,50.71184,5.6468,Europe/Brussels,23594
Oudenaarde,Бельгия,50.85168,3.60891,Europe/Brussels,31866
Oostkamp,Бельгия,51.15432,3.23128,Europe/Brussels,21489
Ostend,Бельгия,51.21551,2.927,Europe/Brussels,69011
Nivelles,Бельгия,50.59833,4.32848,Europe/Brussels,24149
Ninove,Бельгия,50.82776,4.02657,Europe/Brussels,34795
Nijlen,Бельгия,51.16096,4.67008,Europe/Brussels,20792
Neerpelt,Бельгия,51.22807,5.4427,Europe/Brussels,16122
Namur,Бельгия,50.4669,4.86746,Europe/Brussels,110939
Mouscron,Бельгия,50.74497,3.20639,Europe/Brussels,52069
Mortsel,Бельгия,51.16697,4.45127,Europe/Brussels,24525
Morlanwelz-Mariemont,Бельгия,50.45502,4.24519,Europe/Brussels,18233
Montignies-sur-Sambre,Бельгия,50.41081,4.49109,Europe/Brussels,18765
Mons,Бельгия,50.45413,3.95229,Europe/Brussels,95299
Molenbeek-Saint-Jean,Бельгия,50.8499,4.31248,Europe/Brussels,97037
Mol,Бельгия,51.19188,5.11662,Europe/Brussels,32659
Middelkerke,Бельгия,51.18532,2.82077,Europe/Brussels,17789
Merksem,Бельгия,51.24623,4.44903,Europe/Brussels,44435
Merelbeke,Бельгия,50.99447,3.74621,Europe/Brussels,16684
Menen,Бельгия,50.79722,3.12245,Europe/Brussels,31916
Meise,Бельгия,50.93934,4.32655,Europe/Brussels,18497
Mechelen-aan-de-Maas,Бельгия,50.96589,5.69144,Europe/Brussels,15374
Mechelen,Бельгия,51.02574,4.47762,Europe/Brussels,77530
Mariakerke,Бельгия,51.07476,3.68289,Europe/Brussels,17062
Marcinelle,Бельгия,50.39216,4.44388,Europe/Brussels,23696
Marchienne-au-Pont,Бельгия,50.40573,4.3953,Europe/Brussels,15154
Marche-en-Famenne,Бельгия,50.22678,5.34416,Europe/Brussels,16856
Manage,Бельгия,50.50312,4.23589,Europe/Brussels,22196
Maldegem,Бельгия,51.20737,3.44511,Europe/Brussels,22092
Maasmechelen,Бельгия,50.96545,5.69452,Europe/Brussels,36251
Maaseik,Бельгия,51.09802,5.78379,Europe/Brussels,25201
Louvain-la-Neuve,Бельгия,50.66829,4.61443,Europe/Brussels,29521
Lommel,Бельгия,51.23074,5.31349,Europe/Brussels,31993
Lokeren,Бельгия,51.10364,3.99339,Europe/Brussels,41438
Lochristi,Бельгия,51.09644,3.83194,Europe/Brussels,19696
Lille,Бельгия,51.24197,4.82313,Europe/Brussels,15466
Lier,Бельгия,51.13128,4.57041,Europe/Brussels,33272
Liège,Бельгия,50.63373,5.56749,Europe/Brussels,195278
Leuven,Бельгия,50.87959,4.70093,Europe/Brussels,101032
Lessines,Бельгия,50.71104,3.83579,Europe/Brussels,17687
Lede,Бельгия,50.96626,3.98594,Europe/Brussels,16813
Lebbeke,Бельгия,51.00464,4.13457,Europe/Brussels,17372
Lanaken,Бельгия,50.89318,5.6468,Europe/Brussels,24771
La Louvière,Бельгия,50.48657,4.18785,Europe/Brussels,76668
Kortrijk,Бельгия,50.82803,3.26487,Europe/Brussels,73879
Kortenberg,Бельгия,50.88982,4.54353,Europe/Brussels,17774
Kontich,Бельгия,51.13213,4.44706,Europe/Brussels,20290
Koksijde,Бельгия,51.11642,2.63772,Europe/Brussels,21957
Koersel,Бельгия,51.05909,5.27121,Europe/Brussels,18076
Koekelberg,Бельгия,50.86117,4.33136,Europe/Brussels,21984
Knokke-Heist,Бельгия,51.35,3.26667,Europe/Brussels,33781
Kessel-Lo,Бельгия,50.88549,4.73717,Europe/Brussels,30215
Kasterlee,Бельгия,51.24118,4.96651,Europe/Brussels,17765
Kapellen,Бельгия,51.31377,4.43539,Europe/Brussels,26410
Kalmthout,Бельгия,51.38442,4.47556,Europe/Brussels,17485
Jumet,Бельгия,50.4422,4.43745,Europe/Brussels,24510
Jette,Бельгия,50.87309,4.33419,Europe/Brussels,52490
Jambes,Бельгия,50.45636,4.87166,Europe/Brussels,19658
Izegem,Бельгия,50.91396,3.21378,Europe/Brussels,26382
Ixelles,Бельгия,50.83333,4.36667,Europe/Brussels,86671
Ieper,Бельгия,50.85114,2.88569,Europe/Brussels,35089
Huy,Бельгия,50.51894,5.23284,Europe/Brussels,19973
Houthalen,Бельгия,51.03427,5.37429,Europe/Brussels,30050
Hoogstraten,Бельгия,51.40029,4.76034,Europe/Brussels,18524
Hoboken,Бельгия,51.17611,4.34844,Europe/Brussels,34443
Heverlee,Бельгия,50.86426,4.69597,Europe/Brussels,23278
Heusy,Бельгия,50.57457,5.86618,Europe/Brussels,15420
Heusden,Бельгия,51.03664,5.28013,Europe/Brussels,31017
Herzele,Бельгия,50.88681,3.89014,Europe/Brussels,16523
Herve,Бельгия,50.64083,5.79353,Europe/Brussels,16544
Herstal,Бельгия,50.66415,5.62346,Europe/Brussels,36503
Herentals,Бельгия,51.17655,4.83248,Europe/Brussels,25912
Herent,Бельгия,50.90861,4.67056,Europe/Brussels,19218
Helchteren,Бельгия,51.05591,5.38244,Europe/Brussels,30050
Heist-op-den-Berg,Бельгия,51.07537,4.72827,Europe/Brussels,37873
Hasselt,Бельгия,50.93106,5.33781,Europe/Brussels,77651
Harelbeke,Бельгия,50.85343,3.30935,Europe/Brussels,25978
Hamme,Бельгия,51.09822,4.13705,Europe/Brussels,22891
Halle,Бельгия,50.73385,4.23454,Europe/Brussels,34479
Haaltert,Бельгия,50.90634,4.00093,Europe/Brussels,17129
Grivegnée,Бельгия,50.62148,5.61101,Europe/Brussels,21057
Grimbergen,Бельгия,50.93409,4.37213,Europe/Brussels,37000
Gilly,Бельгия,50.42449,4.4789,Europe/Brussels,20043
Geraardsbergen,Бельгия,50.77343,3.88223,Europe/Brussels,30807
Gentbrugge,Бельгия,51.03692,3.76509,Europe/Brussels,15885
Gent,Бельгия,51.05,3.71667,Europe/Brussels,265086
Genk,Бельгия,50.965,5.50082,Europe/Brussels,63666
Gembloux,Бельгия,50.56149,4.69889,Europe/Brussels,21676
Geel,Бельгия,51.16557,4.98917,Europe/Brussels,34697
Ganshoren,Бельгия,50.87065,4.31531,Europe/Brussels,24859
Frameries,Бельгия,50.40578,3.89603,Europe/Brussels,20598
Forest,Бельгия,50.81678,4.32775,Europe/Brussels,56254
Fleurus,Бельгия,50.48351,4.55006,Europe/Brussels,22080
Fléron,Бельгия,50.61516,5.68062,Europe/Brussels,15994
Flémalle-Haute,Бельгия,50.59994,5.44471,Europe/Brussels,25144
Evergem,Бельгия,51.11306,3.70976,Europe/Brussels,31615
Evere,Бельгия,50.87441,4.39905,Europe/Brussels,41667
Eupen,Бельгия,50.6279,6.03647,Europe/Brussels,18029
Etterbeek,Бельгия,50.83272,4.38835,Europe/Brussels,48344
Ekeren,Бельгия,51.28087,4.41813,Europe/Brussels,23300
Eeklo,Бельгия,51.18703,3.55654,Europe/Brussels,19116
Edegem,Бельгия,51.15662,4.44504,Europe/Brussels,21839
Duffel,Бельгия,51.09554,4.50903,Europe/Brussels,16011
Dour,Бельгия,50.39583,3.77792,Europe/Brussels,16861
Dilbeek,Бельгия,50.84799,4.25972,Europe/Brussels,39482
Diksmuide,Бельгия,51.03248,2.86384,Europe/Brussels,15515
Diest,Бельгия,50.98923,5.05062,Europe/Brussels,22516
Diepenbeek,Бельгия,50.90769,5.41875,Europe/Brussels,17699
Deurne,Бельгия,51.22134,4.46595,Europe/Brussels,78747
Destelbergen,Бельгия,51.05952,3.79899,Europe/Brussels,16853
Dendermonde,Бельгия,51.02869,4.10106,Europe/Brussels,45673
Denderleeuw,Бельгия,50.88506,4.07601,Europe/Brussels,16969
Deinze,Бельгия,50.98175,3.53096,Europe/Brussels,29815
Courcelles,Бельгия,50.46379,4.3747,Europe/Brussels,29473
Colfontaine,Бельгия,50.4141,3.85569,Europe/Brussels,19964
Chaudfontaine,Бельгия,50.5828,5.6341,Europe/Brussels,20960
Châtelineau,Бельгия,50.41499,4.52016,Europe/Brussels,17166
Châtelet,Бельгия,50.40338,4.52826,Europe/Brussels,35238
Charleroi,Бельгия,50.41136,4.44448,Europe/Brussels,200132
Brussels,Бельгия,50.85045,4.34878,Europe/Brussels,1019022
Brugge,Бельгия,51.20892,3.22424,Europe/Brussels,118509
Brasschaat,Бельгия,51.2912,4.49182,Europe/Brussels,37040
Braine-le-Comte,Бельгия,50.60979,4.14658,Europe/Brussels,20133
Braine-l'Alleud,Бельгия,50.68363,4.36784,Europe/Brussels,37512
Boussu,Бельгия,50.43417,3.7944,Europe/Brussels,20058
Bornem,Бельгия,51.09716,4.24364,Europe/Brussels,19997
Borgerhout,Бельгия,51.20957,4.43539,Europe/Brussels,46087
Boom,Бельгия,51.09242,4.3717,Europe/Brussels,15810
Blauwput,Бельгия,50.88587,4.72415,Europe/Brussels,30215
Blankenberge,Бельгия,51.31306,3.13227,Europe/Brussels,18000
Binche,Бельгия,50.41155,4.16469,Europe/Brussels,32030
Bilzen,Бельгия,50.87325,5.5184,Europe/Brussels,29622
Beveren,Бельгия,51.21187,4.25633,Europe/Brussels,45179
Bevere,Бельгия,50.8496,3.5873,Europe/Brussels,15311
Beringen,Бельгия,51.04954,5.22606,Europe/Brussels,40930
Berchem-Sainte-Agathe,Бельгия,50.86567,4.29557,Europe/Brussels,25162
Berchem,Бельгия,51.19021,4.43264,Europe/Brussels,43511
Beersel,Бельгия,50.76589,4.3002,Europe/Brussels,23228
Beerse,Бельгия,51.31927,4.85304,Europe/Brussels,16208
Balen,Бельгия,51.16837,5.17027,Europe/Brussels,19978
Auderghem,Бельгия,50.81667,4.43333,Europe/Brussels,33984
Ath,Бельгия,50.62937,3.77801,Europe/Brussels,26681
Assebroek,Бельгия,51.19367,3.2623,Europe/Brussels,19772
Asse,Бельгия,50.91011,4.19836,Europe/Brussels,28985
Arlon,Бельгия,49.68333,5.81667,Europe/Brussels,26179
Antwerpen,Бельгия,51.22047,4.40026,Europe/Brussels,529247
Ans,Бельгия,50.6623,5.52029,Europe/Brussels,27297
Anderlecht,Бельгия,50.83619,4.31454,Europe/Brussels,160553
Andenne,Бельгия,50.48941,5.09513,Europe/Brussels,24055
Aarschot,Бельгия,50.98715,4.83695,Europe/Brussels,27656
Aalter,Бельгия,51.09017,3.44693,Europe/Brussels,18802
Aalst,Бельгия,50.93604,4.0355,Europe/Brussels,77534
Zorgo,BF,12.24922,-0.61527,Africa/Ouagadougou,35398
Ziniaré,BF,12.58186,-1.2971,Africa/Ouagadougou,33296
Zinguédéssé,BF,12.24661,-1.58402,Africa/Ouagadougou,19648
Zabré,BF,11.1825,-0.63222,Africa/Ouagadougou,21726
Yalgo,BF,12.93333,-0.85,Africa/Ouagadougou,26340
Yako,BF,12.9591,-2.26075,Africa/Ouagadougou,38679
Tougan,BF,13.0725,-3.0694,Africa/Ouagadougou,26347
Toma,BF,12.75844,-2.89879,Africa/Ouagadougou,15851
Tô,BF,11.44379,-2.22548,Africa/Ouagadougou,16026
Titao,BF,13.76667,-2.06667,Africa/Ouagadougou,48241
Tita,BF,11.92092,-2.51536,Africa/Ouagadougou,16450
Tenkodogo,BF,11.78,-0.36972,Africa/Ouagadougou,61936
Solenzo,BF,12.17423,-4.08477,Africa/Ouagadougou,24783
Sapouy,BF,11.55444,-1.77361,Africa/Ouagadougou,26345
Saonré,BF,12.2751,-1.57692,Africa/Ouagadougou,47728
Sabou,BF,12.06667,-2.23333,Africa/Ouagadougou,15060
Saaba,BF,12.37136,-1.41468,Africa/Ouagadougou,136011
Réo,BF,12.31963,-2.47094,Africa/Ouagadougou,33894
Pouytenga,BF,12.25162,-0.42565,Africa/Ouagadougou,96469
Pô,BF,11.16972,-1.145,Africa/Ouagadougou,28079
Pissila,BF,13.16417,-0.8225,Africa/Ouagadougou,23420
Pa,BF,12.66667,-3.95,Africa/Ouagadougou,15170
Ouahigouya,BF,13.58278,-2.42158,Africa/Ouagadougou,124587
Ouagadougou,BF,12.36566,-1.53388,Africa/Ouagadougou,2415266
Orodara,BF,10.98115,-4.91885,Africa/Ouagadougou,33422
Nioko I,BF,12.39501,-1.43861,Africa/Ouagadougou,65263
Nouna,BF,12.72939,-3.86305,Africa/Ouagadougou,32428
Niangoloko,BF,10.28333,-4.91667,Africa/Ouagadougou,33292
Natiaboani,BF,11.69917,0.50611,Africa/Ouagadougou,16640
Mogtédo,BF,12.28444,-0.83722,Africa/Ouagadougou,25699
Manga,BF,11.66361,-1.07306,Africa/Ouagadougou,28615
Léo,BF,11.10033,-2.10654,Africa/Ouagadougou,51743
Koupéla,BF,12.17864,-0.35103,Africa/Ouagadougou,49372
Kouka,BF,13.4345,-1.61361,Africa/Ouagadougou,17286
Koudougou,BF,12.25263,-2.36272,Africa/Ouagadougou,160239
Korsimoro,BF,12.82506,-1.06737,Africa/Ouagadougou,18875
Kongoussi,BF,13.32583,-1.53472,Africa/Ouagadougou,53627
Kombissiri,BF,12.06884,-1.33644,Africa/Ouagadougou,28617
Kokologo,BF,12.19392,-1.87687,Africa/Ouagadougou,25958
Kindi,BF,12.4386,-2.03279,Africa/Ouagadougou,16424
Kaya,BF,13.09167,-1.08444,Africa/Ouagadougou,121970
Karankasso,BF,11.22191,-4.64423,Africa/Ouagadougou,15474
Houndé,BF,11.5,-3.51667,Africa/Ouagadougou,87151
Gourcy,BF,13.20776,-2.35893,Africa/Ouagadougou,40141
Gayéri,BF,12.64824,0.49314,Africa/Ouagadougou,15170
Garango,BF,11.8,-0.55056,Africa/Ouagadougou,40404
Gaoua,BF,10.33137,-3.18202,Africa/Ouagadougou,45284
Fara Department,BF,11.52941,-2.76797,Africa/Ouagadougou,20434
Fada N'gourma,BF,12.06157,0.35843,Africa/Ouagadougou,73200
Dori,BF,14.0341,-0.03261,Africa/Ouagadougou,46512
Djibo,BF,14.0994,-1.62554,Africa/Ouagadougou,61462
Diébougou,BF,10.96209,-3.24967,Africa/Ouagadougou,25688
Diapaga,BF,12.07305,1.78838,Africa/Ouagadougou,15515
Dédougou,BF,12.46338,-3.46075,Africa/Ouagadougou,63617
Dano,BF,11.1464,-3.05784,Africa/Ouagadougou,25922
Gomboussougou,BF,11.42611,-0.77278,Africa/Ouagadougou,15336
Boussé,BF,12.66121,-1.89515,Africa/Ouagadougou,25022
Bourzanga,BF,13.67806,-1.54611,Africa/Ouagadougou,27213
Boulsa,BF,12.66664,-0.57469,Africa/Ouagadougou,24200
Boromo,BF,11.74542,-2.93006,Africa/Ouagadougou,20193
Bogandé,BF,12.9704,-0.14953,Africa/Ouagadougou,21443
Bobo-Dioulasso,BF,11.17715,-4.2979,Africa/Ouagadougou,904920
Bittou,BF,11.25806,-0.30611,Africa/Ouagadougou,31210
Béguédo,BF,11.78083,-0.73389,Africa/Ouagadougou,21894
Batié,BF,9.88333,-2.91667,Africa/Ouagadougou,17997
Barogo,BF,12.55,-0.96667,Africa/Ouagadougou,26539
Banfora,BF,10.63333,-4.76667,Africa/Ouagadougou,117452
Bama,BF,12.0357,-4.3987,Africa/Ouagadougou,31215
Aribinda,BF,14.22963,-0.86537,Africa/Ouagadougou,45818
Mani,BF,13.25833,-0.21306,Africa/Ouagadougou,15066
Namponkoré,BF,11.73748,1.77718,Africa/Ouagadougou,16423
Cinkansé,BF,11.11857,0.00993,Africa/Ouagadougou,19815
Kompienga,BF,11.08169,0.72365,Africa/Ouagadougou,15024
Yambol,Болгария,42.48243,26.50006,Europe/Sofia,63656
Vratsa,Болгария,43.21052,23.56312,Europe/Sofia,64941
Vidin,Болгария,43.99159,22.88236,Europe/Sofia,40422
Velingrad,Болгария,42.02754,23.99155,Europe/Sofia,24036
Veliko Tŭrnovo,Болгария,43.08124,25.62904,Europe/Sofia,66217
Varna,Болгария,43.21912,27.91024,Europe/Sofia,312770
Targovishte,Болгария,43.2512,26.57215,Europe/Sofia,34793
Troyan,Болгария,42.89427,24.71589,Europe/Sofia,21162
Dobrich,Болгария,43.56491,27.83138,Europe/Sofia,79269
Svishtov,Болгария,43.61875,25.35033,Europe/Sofia,30157
Svilengrad,Болгария,41.76836,26.19775,Europe/Sofia,19279
Stara Zagora,Болгария,42.43205,25.64262,Europe/Sofia,143431
Dupnitsa,Болгария,42.26478,23.11723,Europe/Sofia,34764
Sofia,Болгария,42.69751,23.32415,Europe/Sofia,1152556
Smolyan,Болгария,41.57439,24.71204,Europe/Sofia,26167
Sliven,Болгария,42.68607,26.32558,Europe/Sofia,83740
Silistra,Болгария,44.1171,27.26056,Europe/Sofia,29498
Shumen,Болгария,43.27064,26.92286,Europe/Sofia,72342
Sevlievo,Болгария,43.02295,25.10364,Europe/Sofia,24582
Sandanski,Болгария,41.56667,23.28333,Europe/Sofia,28510
Samokov,Болгария,42.33855,23.55805,Europe/Sofia,26765
Ruse,Болгария,43.84872,25.9534,Europe/Sofia,143417
Razgrad,Болгария,43.53331,26.51849,Europe/Sofia,38285
Rakovski,Болгария,42.28819,24.96779,Europe/Sofia,15782
Parvomay,Болгария,42.1,25.21667,Europe/Sofia,17000
Popovo,Болгария,43.35,26.23333,Europe/Sofia,16571
Plovdiv,Болгария,42.15387,24.75001,Europe/Sofia,346893
Pleven,Болгария,43.41791,24.61666,Europe/Sofia,100952
Petrich,Болгария,41.39846,23.20702,Europe/Sofia,30722
Peshtera,Болгария,42.03372,24.29995,Europe/Sofia,18676
Pernik,Болгария,42.59671,23.03318,Europe/Sofia,82467
Pazardzhik,Болгария,42.19934,24.33318,Europe/Sofia,65671
Panagyurishte,Болгария,42.49518,24.19021,Europe/Sofia,19389
Nova Zagora,Болгария,42.48333,26.01667,Europe/Sofia,23625
Montana,Болгария,43.41285,23.22174,Europe/Sofia,47445
Lovech,Болгария,43.13227,24.71763,Europe/Sofia,29659
Lom,Болгария,43.8317,23.23793,Europe/Sofia,26594
Kyustendil,Болгария,42.28314,22.69224,Europe/Sofia,37799
Kardzhali,Болгария,41.64502,25.36578,Europe/Sofia,51000
Haskovo,Болгария,41.93415,25.55557,Europe/Sofia,67086
Harmanli,Болгария,41.93233,25.90172,Europe/Sofia,18931
Kazanlak,Болгария,42.61667,25.4,Europe/Sofia,47918
Karnobat,Болгария,42.65,26.98333,Europe/Sofia,19709
Karlovo,Болгария,42.63333,24.8,Europe/Sofia,30340
Gotse Delchev,Болгария,41.56667,23.73333,Europe/Sofia,20522
Gorna Oryahovitsa,Болгария,43.12778,25.70167,Europe/Sofia,32792
Gabrovo,Болгария,42.87419,25.31823,Europe/Sofia,66175
Dimitrovgrad,Болгария,42.05,25.6,Europe/Sofia,38015
Chirpan,Болгария,42.2,25.33333,Europe/Sofia,15109
Burgas,Болгария,42.50651,27.46886,Europe/Sofia,195966
Botevgrad,Болгария,42.90799,23.79274,Europe/Sofia,20909
Blagoevgrad,Болгария,42.01457,23.09804,Europe/Sofia,67810
Berkovitsa,Болгария,43.23741,23.12509,Europe/Sofia,15027
Aytos,Болгария,42.70322,27.25464,Europe/Sofia,20986
Asparuhovo,Болгария,43.18067,27.88823,Europe/Sofia,27000
Asenovgrad,Болгария,42.01667,24.86667,Europe/Sofia,54778
Sitrah,BH,26.15472,50.62056,Asia/Bahrain,37657
Madīnat ‘Īsá,BH,26.17361,50.54778,Asia/Bahrain,38090
Jidd Ḩafş,BH,26.21861,50.54778,Asia/Bahrain,31735
Madīnat Ḩamad,BH,26.11528,50.50694,Asia/Bahrain,52718
Dār Kulayb,BH,26.06861,50.50389,Asia/Bahrain,65466
Al Muharraq,BH,26.25722,50.61194,Asia/Bahrain,97458
Manama,BH,26.22787,50.58565,Asia/Bahrain,147074
Ar Rifā‘,BH,26.13,50.555,Asia/Bahrain,195606
Vyanda,BI,-4.1024,29.606,Africa/Bujumbura,29685
Rumonge,BI,-3.9736,29.4386,Africa/Bujumbura,55599
Gatumba,BI,-3.33333,29.25,Africa/Bujumbura,18104
Bujumbura,BI,-3.38193,29.36142,Africa/Bujumbura,769317
Gitega,BI,-3.42708,29.92463,Africa/Bujumbura,64904
Zanandore,BI,-3.2548,30.11404,Africa/Bujumbura,27867
Karuzi,BI,-3.10139,30.16278,Africa/Bujumbura,15964
Bubanza,BI,-3.0804,29.391,Africa/Bujumbura,30996
Cibitoke,BI,-2.8869,29.1248,Africa/Bujumbura,36959
Ngozi,BI,-2.9075,29.8306,Africa/Bujumbura,61716
Kayanza,BI,-2.9221,29.6293,Africa/Bujumbura,33682
Kirundo,BI,-2.5845,30.0959,Africa/Bujumbura,15511
Zinvié,BJ,6.61738,2.35776,Africa/Porto-Novo,18157
Zé,BJ,6.78333,2.3,Africa/Porto-Novo,16903
Toviklin,BJ,6.88935,1.83722,Africa/Porto-Novo,21617
Toukountouna,BJ,10.50279,1.37437,Africa/Porto-Novo,16330
Tchaourou,BJ,8.88649,2.59753,Africa/Porto-Novo,43862
Tanguiéta,BJ,10.62118,1.26651,Africa/Porto-Novo,27094
Sinendé,BJ,10.34963,2.37906,Africa/Porto-Novo,35267
Semi,BJ,6.36667,2.61667,Africa/Porto-Novo,23636
Ségbana,BJ,10.92821,3.69429,Africa/Porto-Novo,26440
Sé,BJ,6.51115,1.82831,Africa/Porto-Novo,26627
Savé,BJ,8.03424,2.4866,Africa/Porto-Novo,31444
Savalou,BJ,7.92807,1.97558,Africa/Porto-Novo,38162
Sakété,BJ,6.73618,2.65866,Africa/Porto-Novo,43541
Porto-Novo,BJ,6.49646,2.60359,Africa/Porto-Novo,264320
Pobé,BJ,6.98008,2.6649,Africa/Porto-Novo,49232
Pèrèrè,BJ,9.79721,2.98403,Africa/Porto-Novo,15927
Péhonko,BJ,10.22746,2.00192,Africa/Porto-Novo,37217
Parakou,BJ,9.33716,2.63031,Africa/Porto-Novo,255478
Ouinhi,BJ,7.08411,2.48343,Africa/Porto-Novo,17043
Ouidah,BJ,6.36307,2.08506,Africa/Porto-Novo,47616
Ouessé,BJ,8.48639,2.42872,Africa/Porto-Novo,15658
Nikki,BJ,9.94009,3.21075,Africa/Porto-Novo,66109
Ndali,BJ,9.8636,2.72094,Africa/Porto-Novo,23264
Natitingou,BJ,10.30416,1.37962,Africa/Porto-Novo,53284
Missérété,BJ,6.55872,2.59063,Africa/Porto-Novo,41657
Matéri,BJ,10.69623,1.06307,Africa/Porto-Novo,24490
Malanville,BJ,11.86819,3.38327,Africa/Porto-Novo,64639
Lokossa,BJ,6.63869,1.71674,Africa/Porto-Novo,47246
Kouandé,BJ,6.4,2.06667,Africa/Porto-Novo,27197
Kétou,BJ,7.36332,2.59978,Africa/Porto-Novo,39626
Kérou,BJ,10.82578,2.10479,Africa/Porto-Novo,54276
Kandi,BJ,11.13417,2.93861,Africa/Porto-Novo,56043
Kalalé,BJ,10.29275,3.38367,Africa/Porto-Novo,35513
Godomè,BJ,6.38948,2.34581,Africa/Porto-Novo,253262
Glazoué,BJ,7.97252,2.22176,Africa/Porto-Novo,20036
Ganvié,BJ,6.46441,2.39288,Africa/Porto-Novo,20000
Ekpé,BJ,6.39209,2.53725,Africa/Porto-Novo,75313
Dogbo,BJ,6.79911,1.78073,Africa/Porto-Novo,41341
Djougou,BJ,9.70853,1.66598,Africa/Porto-Novo,94773
Djidja,BJ,7.34436,1.93447,Africa/Porto-Novo,23781
Djakotomé,BJ,6.8991,1.71618,Africa/Porto-Novo,19498
Dassa-Zoumè,BJ,7.75,2.18333,Africa/Porto-Novo,29461
Cové,BJ,7.22097,2.34017,Africa/Porto-Novo,43554
Cotonou,BJ,6.36536,2.41833,Africa/Porto-Novo,679012
Kopargo,BJ,9.84108,1.54231,Africa/Porto-Novo,28605
Comé,BJ,6.40764,1.88198,Africa/Porto-Novo,42586
Boukoumbé,BJ,10.17711,1.10621,Africa/Porto-Novo,22386
Bohicon,BJ,7.17826,2.0667,Africa/Porto-Novo,93744
Bembèrèkè,BJ,10.22827,2.66335,Africa/Porto-Novo,31176
Bassila,BJ,9.00814,1.6654,Africa/Porto-Novo,46569
Banté,BJ,8.41221,1.88969,Africa/Porto-Novo,17682
Banikoara,BJ,11.29845,2.43856,Africa/Porto-Novo,37571
Banigbé,BJ,6.64756,2.70695,Africa/Porto-Novo,31984
Avrankou,BJ,6.55591,2.65123,Africa/Porto-Novo,20326
Athiémé,BJ,6.5808,1.6696,Africa/Porto-Novo,15195
Aplahoué,BJ,6.93333,1.68333,Africa/Porto-Novo,26340
Allada,BJ,6.66547,2.15138,Africa/Porto-Novo,23287
Adjarra,BJ,6.53445,2.66833,Africa/Porto-Novo,24132
Adjaouèrè,BJ,7.00228,2.60591,Africa/Porto-Novo,21968
Abomey-Calavi,BJ,6.44852,2.35566,Africa/Porto-Novo,385755
Abomey,BJ,7.18286,1.99119,Africa/Porto-Novo,117824
Ouaké,BJ,9.66167,1.38472,Africa/Porto-Novo,17259
Cobly,BJ,10.49222,0.99972,Africa/Porto-Novo,24878
Klouékanmè,BJ,6.98028,1.84222,Africa/Porto-Novo,23763
Kpozoun,BJ,7.22868,2.21317,Africa/Porto-Novo,26688
Tutong,BN,4.80278,114.64917,Asia/Brunei,19151
Seria,BN,4.60637,114.32476,Asia/Brunei,30097
Kuala Belait,BN,4.58361,114.2312,Asia/Brunei,31178
Liang,BN,4.67747,114.49587,Asia/Brunei,16813
Serasa,BN,5.01761,115.05798,Asia/Brunei,18569
Sengkurong,BN,4.88333,114.83333,Asia/Brunei,40972
Mentiri,BN,4.97058,115.02078,Asia/Brunei,39324
Bandar Seri Begawan,BN,4.89035,114.94006,Asia/Brunei,64409
Yacuiba,BO,-22.01643,-63.67753,America/La_Paz,82803
Warnes,BO,-17.5163,-63.16778,America/La_Paz,22036
Vinto,BO,-17.39141,-66.31681,America/La_Paz,58739
Villazón,BO,-22.08659,-65.59422,America/La_Paz,30253
Villa Yapacaní,BO,-17.4,-63.83333,America/La_Paz,18187
Villamontes,BO,-21.26235,-63.46903,America/La_Paz,39800
Viacha,BO,-16.65,-68.3,America/La_Paz,86218
Tupiza,BO,-21.44345,-65.71875,America/La_Paz,22233
Trinidad,BO,-14.83223,-64.90335,America/La_Paz,84259
Tiquipaya,BO,-17.33801,-66.21579,America/La_Paz,62675
Tarija,BO,-21.53549,-64.72956,America/La_Paz,159269
Sucre,BO,-19.03332,-65.26274,America/La_Paz,224838
Sipe Sipe,BO,-17.45419,-66.35737,America/La_Paz,47000
El Torno,BO,-18.00014,-63.38712,America/La_Paz,15543
Santa Cruz de la Sierra,BO,-17.78629,-63.18117,America/La_Paz,1831434
San Ignacio de Velasco,BO,-16.37767,-60.96472,America/La_Paz,23569
Sacaba,BO,-17.39799,-66.03825,America/La_Paz,180726
Riberalta,BO,-11.01026,-66.05257,America/La_Paz,99070
Quillacollo,BO,-17.39228,-66.27838,America/La_Paz,172405
Punata,BO,-17.54234,-65.83472,America/La_Paz,15194
Potosí,BO,-19.58361,-65.75306,America/La_Paz,141251
Oruro,BO,-17.97153,-67.0932,America/La_Paz,208684
Montero,BO,-17.33874,-63.25093,America/La_Paz,88616
Mizque,BO,-17.94101,-65.34016,America/La_Paz,30481
Llallagua,BO,-18.42494,-66.57778,America/La_Paz,28069
La Paz,BO,-16.5,-68.15,America/La_Paz,2004652
Laja,BO,-16.53333,-68.38333,America/La_Paz,18023
Huanuni,BO,-18.289,-66.83583,America/La_Paz,15492
Guayaramerín,BO,-10.8258,-65.3581,America/La_Paz,36008
Cotoca,BO,-17.81667,-63.05,America/La_Paz,18347
Colcapirhua,BO,-17.3857,-66.23814,America/La_Paz,52732
Cochabamba,BO,-17.38195,-66.15995,America/La_Paz,841276
Cobija,BO,-11.02671,-68.76918,America/La_Paz,26585
Caranavi,BO,-15.83403,-67.56586,America/La_Paz,45747
Camiri,BO,-20.04063,-63.52396,America/La_Paz,27961
Bermejo,BO,-22.73206,-64.33724,America/La_Paz,35411
Achocalla,BO,-16.57386,-68.15112,America/La_Paz,19583
Ascención de Guarayos,BO,-15.89299,-63.18855,America/La_Paz,18816
San Borja,BO,-14.85195,-66.74954,America/La_Paz,24610
Vitorino Freire,Бразилия,-4.28805,-45.24611,America/Fortaleza,30845
Vitória do Mearim,Бразилия,-3.46222,-44.87056,America/Fortaleza,30805
Vitória de Santo Antão,Бразилия,-8.11806,-35.29139,America/Recife,134084
Viseu,Бразилия,-1.19667,-46.14,America/Belem,58692
Conde,Бразилия,-7.25972,-34.9075,America/Fortaleza,27605
Vigia,Бразилия,-0.85833,-48.14167,America/Belem,50832
Viçosa do Ceará,Бразилия,-3.56222,-41.09222,America/Fortaleza,59712
Viçosa,Бразилия,-9.37139,-36.24083,America/Maceio,24423
Vicência,Бразилия,-7.65694,-35.32667,America/Recife,26359
Viana,Бразилия,-3.22028,-45.00361,America/Fortaleza,51442
Vertentes,Бразилия,-7.90278,-35.98833,America/Recife,21959
Venturosa,Бразилия,-8.57472,-36.87417,America/Recife,17251
Várzea Alegre,Бразилия,-5.35,-40.38333,America/Fortaleza,21841
Várzea Alegre,Бразилия,-6.78889,-39.29583,America/Fortaleza,38984
Varjota,Бразилия,-4.19444,-40.47667,America/Fortaleza,18105
Vargem Grande,Бразилия,-3.54306,-43.91583,America/Fortaleza,43261
Valença do Piauí,Бразилия,-6.4075,-41.74556,America/Fortaleza,22279
Urucurituba,Бразилия,-3.12873,-58.15501,America/Manaus,25592
Uruçuí,Бразилия,-7.22944,-44.55611,America/Fortaleza,25203
Urucará,Бразилия,-2.53639,-57.76,America/Manaus,19505
Uruburetama,Бразилия,-3.625,-39.50833,America/Fortaleza,20189
Urbano Santos,Бразилия,-3.20778,-43.40361,America/Fortaleza,32812
União dos Palmares,Бразилия,-9.16278,-36.03194,America/Maceio,60874
União,Бразилия,-4.58583,-42.86417,America/Fortaleza,46119
Umirim,Бразилия,-3.67722,-39.35028,America/Fortaleza,17470
Ubajara,Бразилия,-3.85444,-40.92111,America/Fortaleza,32767
Uauá,Бразилия,-9.84139,-39.48167,America/Bahia,24665
Tutóia,Бразилия,-2.76194,-42.27444,America/Fortaleza,53356
Turiaçu,Бразилия,-1.66333,-45.37167,America/Fortaleza,37491
Turaru,Бразилия,-3.6,-39.43333,America/Fortaleza,15412
Tupanatinga,Бразилия,-8.75333,-37.33972,America/Recife,26937
Tuntum,Бразилия,-5.25806,-44.64889,America/Fortaleza,36251
Tucuruí,Бразилия,-3.76585,-49.67923,America/Belem,91306
Tucumã,Бразилия,-0.15491,-50.0615,America/Belem,15030
Trindade,Бразилия,-7.76194,-40.26778,America/Recife,30321
Trairi,Бразилия,-3.27778,-39.26889,America/Fortaleza,58415
Traipu,Бразилия,-9.97056,-37.00333,America/Maceio,24124
Tracuateua,Бразилия,-1.07611,-46.90306,America/Belem,28595
Touros,Бразилия,-5.19889,-35.46083,America/Fortaleza,33035
Toritama,Бразилия,-8.00667,-36.05667,America/Recife,41137
Tomé-Açu,Бразилия,-2.41889,-48.15222,America/Belem,67585
Tocantinópolis,Бразилия,-6.32944,-47.41639,America/Araguaina,23203
Timon,Бразилия,-5.09417,-42.83667,America/Fortaleza,174465
Timbiras,Бразилия,-4.25528,-43.94056,America/Fortaleza,26484
Timbaúba,Бразилия,-7.50528,-35.31833,America/Recife,46147
Tibau do Sul,Бразилия,-6.18667,-35.09194,America/Fortaleza,16929
Tianguá,Бразилия,-3.73222,-40.99167,America/Fortaleza,81506
Terra Santa,Бразилия,-2.10417,-56.48694,America/Santarem,18782
Teresina,Бразилия,-5.08917,-42.80194,America/Fortaleza,871126
Tejuçuoca,Бразилия,-3.98889,-39.58056,America/Fortaleza,17154
Tauá,Бразилия,-6.00306,-40.29278,America/Fortaleza,61227
São João dos Inhamuns,Бразилия,-6.0,-40.28333,America/Fortaleza,29188
Taquaritinga do Norte,Бразилия,-7.90306,-36.04417,America/Recife,24736
Taquarana,Бразилия,-9.645,-36.49722,America/Maceio,19422
Tamboril,Бразилия,-4.83222,-40.32056,America/Fortaleza,24815
Itambé,Бразилия,-7.41028,-35.11278,America/Recife,36626
Tamandaré,Бразилия,-8.75632,-35.09995,America/Recife,23561
Tacaratu,Бразилия,-9.10528,-38.14917,America/Recife,23902
Tabuleiro do Norte,Бразилия,-5.24667,-38.13056,America/Fortaleza,30652
Tabira,Бразилия,-7.59083,-37.53944,America/Recife,27681
Surubim,Бразилия,-7.83306,-35.75472,America/Recife,64120
Sumé,Бразилия,-7.67167,-36.88,America/Fortaleza,17166
Sousa,Бразилия,-6.75917,-38.22806,America/Fortaleza,67259
Soure,Бразилия,-0.71667,-48.52333,America/Belem,24204
Solonópole,Бразилия,-5.73333,-39.0075,America/Fortaleza,18179
Solânea,Бразилия,-6.75459,-35.66449,America/Fortaleza,17030
Sobral,Бразилия,-3.68611,-40.34972,America/Fortaleza,203023
Sobradinho,Бразилия,-9.47184,-40.80155,America/Bahia,25475
Sirinhaém,Бразилия,-8.59083,-35.11611,America/Recife,40852
Sertânia,Бразилия,-8.07361,-37.26444,America/Recife,32811
Serrita,Бразилия,-7.93333,-39.29583,America/Recife,18207
Serra Talhada,Бразилия,-7.99194,-38.29833,America/Recife,86915
Senador Pompeu,Бразилия,-5.58806,-39.37167,America/Fortaleza,24266
Senador José Porfírio,Бразилия,-2.59083,-51.95417,America/Belem,22576
Satuba,Бразилия,-9.56333,-35.82444,America/Maceio,25000
Sapé,Бразилия,-7.09639,-35.23278,America/Fortaleza,51306
São Vicente Férrer,Бразилия,-7.59111,-35.49139,America/Recife,16677
São Vicente Ferrer,Бразилия,-2.89417,-44.88028,America/Fortaleza,19498
São Sebastião da Boa Vista,Бразилия,-1.71464,-49.53152,America/Belem,25643
São Sebastião,Бразилия,-9.93361,-36.55417,America/Maceio,32701
São Raimundo Nonato,Бразилия,-9.01528,-42.69944,America/Fortaleza,38934
São Raimundo das Mangabeiras,Бразилия,-7.02194,-45.48111,America/Fortaleza,18672
São Paulo do Potengi,Бразилия,-5.895,-35.76278,America/Fortaleza,16786
São Miguel do Tapuio,Бразилия,-5.50361,-41.32333,America/Fortaleza,17554
São Miguel dos Campos,Бразилия,-9.78111,-36.09361,America/Maceio,53391
São Miguel do Guamá,Бразилия,-1.62667,-47.48333,America/Belem,52894
São Miguel,Бразилия,-6.21194,-38.49694,America/Fortaleza,23537
São Mateus do Maranhão,Бразилия,-4.04167,-44.475,America/Fortaleza,38829
São Luís do Quitunde,Бразилия,-9.31833,-35.56111,America/Maceio,31792
São Luís,Бразилия,-2.52972,-44.30278,America/Fortaleza,917237
São Lourenço da Mata,Бразилия,-8.00222,-35.01833,America/Recife,111249
São José do Egito,Бразилия,-7.47889,-37.27444,America/Recife,31004
São José do Belmonte,Бразилия,-7.86139,-38.75972,America/Recife,34843
São José de Ribamar,Бразилия,-2.55572,-44.05992,America/Fortaleza,244579
São José de Piranhas,Бразилия,-7.12056,-38.50194,America/Fortaleza,19067
São José de Mipibu,Бразилия,-6.07472,-35.23778,America/Fortaleza,47286
São José da Tapera,Бразилия,-9.55833,-37.38111,America/Maceio,31557
São José da Laje,Бразилия,-9.00972,-36.05833,America/Maceio,21193
São José da Coroa Grande,Бразилия,-8.89778,-35.14778,America/Recife,18825
São Joaquim do Monte,Бразилия,-8.4325,-35.80444,America/Recife,20037
São João dos Patos,Бразилия,-6.495,-43.70222,America/Fortaleza,25020
São João do Piauí,Бразилия,-8.35806,-42.24667,America/Fortaleza,21421
